{
  "type": "FeatureCollection",
  "features": [
    {
      "type": "Feature",
      "properties": {
        "weight": 1.0
      },
      "geometry": {
        "type": "Point",
        "coordinates": [
          -122.1278208,
          47.6792209
        ]
      }
    },
    {
      "type": "Feature",
      "properties": {
        "weight": 1.0,
        "area_sqm": 22676.9,
        "radius_m": 85.0,
        "id": 29691854,
        "hasDetails": true,
        "name": "Heron Rookery Park",
        "address": "Leary Way 7529, Redmond",
        "website": "https://www.redmond.gov/Facilities/Facility/Details/Heron-Rookery-39",
        "opening_hours": "dawn-dusk"
      },
      "geometry": {
        "type": "Point",
        "coordinates": [
          -122.12591454,
          47.672523068000004
        ]
      }
    },
    {
      "type": "Feature",
      "properties": {
        "weight": 1.0,
        "area_sqm": 231794.2,
        "radius_m": 271.6,
        "id": 31886681,
        "hasDetails": true,
        "name": "Perrigo Park",
        "address": "196th Avenue Northeast 9011, Redmond",
        "website": "https://www.redmond.gov/Facilities/Facility/Details/Perrigo-Park-66",
        "opening_hours": "dawn-dusk"
      },
      "geometry": {
        "type": "Point",
        "coordinates": [
          -122.08502492857143,
          47.68344388285714
        ]
      }
    },
    {
      "type": "Feature",
      "properties": {
        "weight": 1.0,
        "area_sqm": 4751.5,
        "radius_m": 38.9,
        "id": 31928094,
        "hasDetails": true,
        "name": "The Edge Skate Park",
        "address": "161st Avenue Northeast 8300, Redmond",
        "website": "https://www.redmond.gov/Facilities/Facility/Details/The-Edge-Skate-Park-60",
        "opening_hours": "dawn-dusk"
      },
      "geometry": {
        "type": "Point",
        "coordinates": [
          -122.1248326814815,
          47.67699199259259
        ]
      }
    },
    {
      "type": "Feature",
      "properties": {
        "weight": 1.0,
        "area_sqm": 12347.8,
        "radius_m": 62.7,
        "id": 31928133,
        "hasDetails": true,
        "name": "Albert Anderson Memorial Park",
        "address": "168th Avenue Northeast 7802, Redmond",
        "website": "https://www.redmond.gov/facilities/facility/details/Anderson-Park-59",
        "opening_hours": "dawn-dusk"
      },
      "geometry": {
        "type": "Point",
        "coordinates": [
          -122.11560427222223,
          47.672699277777774
        ]
      }
    },
    {
      "type": "Feature",
      "properties": {
        "weight": 1.0,
        "area_sqm": 113064.1,
        "radius_m": 189.7,
        "id": 32215299,
        "hasDetails": true,
        "name": "Grass Lawn Park",
        "address": "148th Avenue Northeast 7031, Redmond",
        "opening_hours": "Mo-Su 06:00-23:00"
      },
      "geometry": {
        "type": "Point",
        "coordinates": [
          -122.14570097142857,
          47.66799306
        ]
      }
    },
    {
      "type": "Feature",
      "properties": {
        "weight": 1.0,
        "area_sqm": 276152.9,
        "radius_m": 296.5,
        "id": 32544404,
        "hasDetails": true,
        "name": "Farrel-McWhirter Park",
        "address": "Northeast Redmond Road 19545, Redmond",
        "website": "https://redmond.gov/Facilities/Facility/Details/FarrelMcWhirter-Park-61",
        "opening_hours": "dawn-dusk"
      },
      "geometry": {
        "type": "Point",
        "coordinates": [
          -122.08042097894737,
          47.69471764736842
        ]
      }
    },
    {
      "type": "Feature",
      "properties": {
        "weight": 1.0,
        "area_sqm": 44099.0,
        "radius_m": 118.5,
        "id": 32544729,
        "hasDetails": true,
        "name": "Bear Creek Park",
        "address": "Redmond",
        "website": "https://www.redmond.gov/facilities/facility/details/Bear-Creek-Park-33",
        "opening_hours": "dawn-dusk"
      },
      "geometry": {
        "type": "Point",
        "coordinates": [
          -122.10843741818182,
          47.672393396969696
        ]
      }
    },
    {
      "type": "Feature",
      "properties": {
        "weight": 1.0,
        "area_sqm": 111312.4,
        "radius_m": 188.2,
        "id": 32919331,
        "hasDetails": true,
        "name": "Kathryn Taylor Equestrian Park",
        "opening_hours": "dawn-dusk"
      },
      "geometry": {
        "type": "Point",
        "coordinates": [
          -122.03064499500002,
          47.726480885
        ]
      }
    },
    {
      "type": "Feature",
      "properties": {
        "weight": 1.0,
        "area_sqm": 152565.9,
        "radius_m": 220.4,
        "id": 33441484,
        "hasDetails": true,
        "name": "Jonathan Hartman Park",
        "address": "Northeast 104th Street 17300, Redmond",
        "website": "https://www.redmond.gov/Facilities/Facility/Details/Hartman-Park-63"
      },
      "geometry": {
        "type": "Point",
        "coordinates": [
          -122.10823318,
          47.69054852
        ]
      }
    },
    {
      "type": "Feature",
      "properties": {
        "weight": 1.0,
        "area_sqm": 5851.4,
        "radius_m": 43.2,
        "id": 55760663,
        "hasDetails": true,
        "name": "Willows Creek Neighborhood Park",
        "address": "142nd Avenue Northeast 8915, Redmond",
        "website": "https://www.redmond.gov/Facilities/Facility/Details/Willows-Creek-Park-58",
        "opening_hours": "dawn-dusk"
      },
      "geometry": {
        "type": "Point",
        "coordinates": [
          -122.15176824285713,
          47.6817584
        ]
      }
    },
    {
      "type": "Feature",
      "properties": {
        "weight": 1.0,
        "area_sqm": 8436.1,
        "radius_m": 51.8,
        "id": 59871392,
        "hasDetails": true,
        "name": "Spiritbrook Park",
        "address": "151st Avenue Northeast 6500, Redmond",
        "website": "https://www.redmond.gov/Facilities/Facility/Details/Spiritbrook-Park-51",
        "opening_hours": "dawn-dusk"
      },
      "geometry": {
        "type": "Point",
        "coordinates": [
          -122.13916140416666,
          47.664732612499996
        ]
      }
    },
    {
      "type": "Feature",
      "properties": {
        "weight": 1.0,
        "area_sqm": 523.4,
        "radius_m": 12.9
      },
      "geometry": {
        "type": "Point",
        "coordinates": [
          -122.13031464000001,
          47.68615742
        ]
      }
    },
    {
      "type": "Feature",
      "properties": {
        "weight": 1.0,
        "area_sqm": 267.8,
        "radius_m": 9.2
      },
      "geometry": {
        "type": "Point",
        "coordinates": [
          -122.13130260666667,
          47.68614570666667
        ]
      }
    },
    {
      "type": "Feature",
      "properties": {
        "weight": 1.0,
        "area_sqm": 398.7,
        "radius_m": 11.3
      },
      "geometry": {
        "type": "Point",
        "coordinates": [
          -122.131021975,
          47.68774335
        ]
      }
    },
    {
      "type": "Feature",
      "properties": {
        "weight": 1.0,
        "area_sqm": 155808.1,
        "radius_m": 222.7,
        "id": 103455177,
        "hasDetails": true,
        "name": "Juel Community Park",
        "address": "Northeast 116th Street 18815, Redmond",
        "opening_hours": "dawn-dusk"
      },
      "geometry": {
        "type": "Point",
        "coordinates": [
          -122.08798747142858,
          47.70167301428571
        ]
      }
    },
    {
      "type": "Feature",
      "properties": {
        "weight": 1.0,
        "area_sqm": 10645.5,
        "radius_m": 58.2,
        "id": 112412456,
        "hasDetails": true,
        "name": "Redmond Watershed Addition Park",
        "address": "Redmond"
      },
      "geometry": {
        "type": "Point",
        "coordinates": [
          -122.05755783684211,
          47.71272503157895
        ]
      }
    },
    {
      "type": "Feature",
      "properties": {
        "weight": 1.0,
        "area_sqm": 18596.1,
        "radius_m": 76.9
      },
      "geometry": {
        "type": "Point",
        "coordinates": [
          -122.14457686666667,
          47.6475172
        ]
      }
    },
    {
      "type": "Feature",
      "properties": {
        "weight": 1.0,
        "area_sqm": 23646.6,
        "radius_m": 86.8,
        "id": 114464547,
        "hasDetails": true,
        "name": "Westside Park",
        "address": "156th Avenue Northeast 5810, Redmond",
        "website": "https://www.redmond.gov/facilities/facility/details/Westside-Park-57",
        "opening_hours": "dawn-dusk"
      },
      "geometry": {
        "type": "Point",
        "coordinates": [
          -122.13092286,
          47.659420540000006
        ]
      }
    },
    {
      "type": "Feature",
      "properties": {
        "weight": 1.0,
        "area_sqm": 384.7,
        "radius_m": 11.1
      },
      "geometry": {
        "type": "Point",
        "coordinates": [
          -122.09780802857144,
          47.69818597142857
        ]
      }
    },
    {
      "type": "Feature",
      "properties": {
        "weight": 1.0,
        "area_sqm": 327.7,
        "radius_m": 10.2
      },
      "geometry": {
        "type": "Point",
        "coordinates": [
          -122.11685064285714,
          47.70867417142857
        ]
      }
    },
    {
      "type": "Feature",
      "properties": {
        "weight": 1.0,
        "area_sqm": 4694.5,
        "radius_m": 38.7
      },
      "geometry": {
        "type": "Point",
        "coordinates": [
          -122.1183265,
          47.70829239230769
        ]
      }
    },
    {
      "type": "Feature",
      "properties": {
        "weight": 1.0,
        "area_sqm": 919.4,
        "radius_m": 17.1
      },
      "geometry": {
        "type": "Point",
        "coordinates": [
          -122.11597028999999,
          47.70905861
        ]
      }
    },
    {
      "type": "Feature",
      "properties": {
        "weight": 1.0,
        "area_sqm": 421.3,
        "radius_m": 11.6
      },
      "geometry": {
        "type": "Point",
        "coordinates": [
          -122.11637286,
          47.7104915
        ]
      }
    },
    {
      "type": "Feature",
      "properties": {
        "weight": 1.0,
        "area_sqm": 512.1,
        "radius_m": 12.8
      },
      "geometry": {
        "type": "Point",
        "coordinates": [
          -122.11721304,
          47.71049946
        ]
      }
    },
    {
      "type": "Feature",
      "properties": {
        "weight": 1.0,
        "area_sqm": 1907.4,
        "radius_m": 24.6
      },
      "geometry": {
        "type": "Point",
        "coordinates": [
          -122.11721278333334,
          47.70970868333333
        ]
      }
    },
    {
      "type": "Feature",
      "properties": {
        "weight": 1.0,
        "area_sqm": 1621.3,
        "radius_m": 22.7,
        "id": 154429496,
        "hasDetails": true,
        "name": "Northstar Neighborhood Park",
        "address": "167th Place Northeast, Redmond"
      },
      "geometry": {
        "type": "Point",
        "coordinates": [
          -122.11697522499999,
          47.704850666666665
        ]
      }
    },
    {
      "type": "Feature",
      "properties": {
        "weight": 1.0,
        "area_sqm": 20884.6,
        "radius_m": 81.5,
        "id": 162040572,
        "hasDetails": true,
        "name": "Meadow Park",
        "address": "160th Avenue Northeast 10710, Redmond",
        "website": "https://www.redmond.gov/Facilities/Facility/Details/Meadow-Park-41",
        "opening_hours": "dawn-dusk"
      },
      "geometry": {
        "type": "Point",
        "coordinates": [
          -122.12573640000001,
          47.696652799999995
        ]
      }
    },
    {
      "type": "Feature",
      "properties": {
        "weight": 1.0,
        "area_sqm": 39555.3,
        "radius_m": 112.2,
        "id": 177067178,
        "hasDetails": true,
        "name": "Smith Woods",
        "address": "Redmond",
        "website": "https://www.redmond.gov/Facilities/Facility/Details/Smith-Woods-48",
        "opening_hours": "dawn-dusk"
      },
      "geometry": {
        "type": "Point",
        "coordinates": [
          -122.104348875,
          47.71007665
        ]
      }
    },
    {
      "type": "Feature",
      "properties": {
        "weight": 1.0,
        "area_sqm": 10990.0,
        "radius_m": 59.1
      },
      "geometry": {
        "type": "Point",
        "coordinates": [
          -122.15249098888889,
          47.67687965555555
        ]
      }
    },
    {
      "type": "Feature",
      "properties": {
        "weight": 1.0,
        "area_sqm": 5301.4,
        "radius_m": 41.1
      },
      "geometry": {
        "type": "Point",
        "coordinates": [
          -122.1526573,
          47.67580473333334
        ]
      }
    },
    {
      "type": "Feature",
      "properties": {
        "weight": 1.0,
        "area_sqm": 234614.4,
        "radius_m": 273.3,
        "id": 185227446,
        "hasDetails": true,
        "name": "Sixty Acres North",
        "address": "Northeast 116th Street 15200, Redmond"
      },
      "geometry": {
        "type": "Point",
        "coordinates": [
          -122.13589701935483,
          47.70536633870967
        ]
      }
    },
    {
      "type": "Feature",
      "properties": {
        "weight": 1.0,
        "area_sqm": 12759.3,
        "radius_m": 63.7
      },
      "geometry": {
        "type": "Point",
        "coordinates": [
          -122.08569949047619,
          47.666291228571424
        ]
      }
    },
    {
      "type": "Feature",
      "properties": {
        "weight": 1.0,
        "area_sqm": 7969.7,
        "radius_m": 50.4,
        "id": 238108677,
        "hasDetails": true,
        "name": "Downtown Park",
        "address": "Redmond Way 16101, Redmond",
        "website": "https://redmond.gov/955/Downtown-Park",
        "opening_hours": "dawn-23:00"
      },
      "geometry": {
        "type": "Point",
        "coordinates": [
          -122.12447944999998,
          47.67411929705882
        ]
      }
    },
    {
      "type": "Feature",
      "properties": {
        "weight": 1.0,
        "area_sqm": 45042.9,
        "radius_m": 119.7,
        "id": 259778966,
        "hasDetails": true,
        "name": "Redmond Ridge Park",
        "address": "Northeast Alder Crest Drive 22915, Redmond"
      },
      "geometry": {
        "type": "Point",
        "coordinates": [
          -122.034085525,
          47.69116535
        ]
      }
    },
    {
      "type": "Feature",
      "properties": {
        "weight": 1.0,
        "area_sqm": 2630.0,
        "radius_m": 28.9
      },
      "geometry": {
        "type": "Point",
        "coordinates": [
          -122.03697098518518,
          47.6837005
        ]
      }
    },
    {
      "type": "Feature",
      "properties": {
        "weight": 1.0,
        "area_sqm": 1645.9,
        "radius_m": 22.9
      },
      "geometry": {
        "type": "Point",
        "coordinates": [
          -122.0452482909091,
          47.68453104545454
        ]
      }
    },
    {
      "type": "Feature",
      "properties": {
        "weight": 1.0,
        "area_sqm": 2239.9,
        "radius_m": 26.7
      },
      "geometry": {
        "type": "Point",
        "coordinates": [
          -122.03679971666666,
          47.68166473333333
        ]
      }
    },
    {
      "type": "Feature",
      "properties": {
        "weight": 1.0,
        "area_sqm": 1795.9,
        "radius_m": 23.9
      },
      "geometry": {
        "type": "Point",
        "coordinates": [
          -122.02507591666667,
          47.680522024999995
        ]
      }
    },
    {
      "type": "Feature",
      "properties": {
        "weight": 1.0,
        "area_sqm": 994.7,
        "radius_m": 17.8
      },
      "geometry": {
        "type": "Point",
        "coordinates": [
          -122.04570131428571,
          47.69383570714286
        ]
      }
    },
    {
      "type": "Feature",
      "properties": {
        "weight": 1.0,
        "area_sqm": 2731.3,
        "radius_m": 29.5
      },
      "geometry": {
        "type": "Point",
        "coordinates": [
          -122.03611795833335,
          47.69231605833334
        ]
      }
    },
    {
      "type": "Feature",
      "properties": {
        "weight": 1.0,
        "area_sqm": 1191.2,
        "radius_m": 19.5
      },
      "geometry": {
        "type": "Point",
        "coordinates": [
          -122.04334543200001,
          47.688074224000005
        ]
      }
    },
    {
      "type": "Feature",
      "properties": {
        "weight": 1.0,
        "area_sqm": 450.4,
        "radius_m": 12.0
      },
      "geometry": {
        "type": "Point",
        "coordinates": [
          -122.03984059,
          47.68904509
        ]
      }
    },
    {
      "type": "Feature",
      "properties": {
        "weight": 1.0,
        "area_sqm": 997.4,
        "radius_m": 17.8
      },
      "geometry": {
        "type": "Point",
        "coordinates": [
          -122.03572965833332,
          47.681986358333326
        ]
      }
    },
    {
      "type": "Feature",
      "properties": {
        "weight": 1.0,
        "area_sqm": 769.2,
        "radius_m": 15.6
      },
      "geometry": {
        "type": "Point",
        "coordinates": [
          -122.03530488333332,
          47.682583550000004
        ]
      }
    },
    {
      "type": "Feature",
      "properties": {
        "weight": 1.0,
        "area_sqm": 6813.7,
        "radius_m": 46.6
      },
      "geometry": {
        "type": "Point",
        "coordinates": [
          -122.02326564583332,
          47.69441675416667
        ]
      }
    },
    {
      "type": "Feature",
      "properties": {
        "weight": 1.0,
        "area_sqm": 1474.3,
        "radius_m": 21.7
      },
      "geometry": {
        "type": "Point",
        "coordinates": [
          -122.0834623625,
          47.665726625
        ]
      }
    },
    {
      "type": "Feature",
      "properties": {
        "weight": 1.0,
        "area_sqm": 916.9,
        "radius_m": 17.1
      },
      "geometry": {
        "type": "Point",
        "coordinates": [
          -122.08254663333334,
          47.66491138333333
        ]
      }
    },
    {
      "type": "Feature",
      "properties": {
        "weight": 1.0,
        "area_sqm": 721.9,
        "radius_m": 15.2
      },
      "geometry": {
        "type": "Point",
        "coordinates": [
          -122.081993775,
          47.66434113125
        ]
      }
    },
    {
      "type": "Feature",
      "properties": {
        "weight": 1.0,
        "area_sqm": 1345.8,
        "radius_m": 20.7
      },
      "geometry": {
        "type": "Point",
        "coordinates": [
          -122.0837179,
          47.6638161625
        ]
      }
    },
    {
      "type": "Feature",
      "properties": {
        "weight": 1.0,
        "area_sqm": 2492.4,
        "radius_m": 28.2
      },
      "geometry": {
        "type": "Point",
        "coordinates": [
          -122.08585322380952,
          47.66370871428572
        ]
      }
    },
    {
      "type": "Feature",
      "properties": {
        "weight": 1.0,
        "area_sqm": 800.3,
        "radius_m": 16.0
      },
      "geometry": {
        "type": "Point",
        "coordinates": [
          -122.08551222068965,
          47.66350909310345
        ]
      }
    },
    {
      "type": "Feature",
      "properties": {
        "weight": 1.0,
        "area_sqm": 481.3,
        "radius_m": 12.4
      },
      "geometry": {
        "type": "Point",
        "coordinates": [
          -122.0871054,
          47.661142095
        ]
      }
    },
    {
      "type": "Feature",
      "properties": {
        "weight": 1.0,
        "area_sqm": 3953.8,
        "radius_m": 35.5
      },
      "geometry": {
        "type": "Point",
        "coordinates": [
          -122.0862659652174,
          47.664562260869566
        ]
      }
    },
    {
      "type": "Feature",
      "properties": {
        "weight": 1.0,
        "area_sqm": 651.0,
        "radius_m": 14.4
      },
      "geometry": {
        "type": "Point",
        "coordinates": [
          -122.02240252666667,
          47.69573922
        ]
      }
    },
    {
      "type": "Feature",
      "properties": {
        "weight": 1.0,
        "area_sqm": 461.7,
        "radius_m": 12.1
      },
      "geometry": {
        "type": "Point",
        "coordinates": [
          -122.02549851666667,
          47.695327866666666
        ]
      }
    },
    {
      "type": "Feature",
      "properties": {
        "weight": 1.0,
        "area_sqm": 20912.8,
        "radius_m": 81.6,
        "id": 296620644,
        "hasDetails": true,
        "name": "Redmond Central Connector Park",
        "address": "Redmond",
        "website": "https://www.redmond.gov/Facilities/Facility/Details/Redmond-Central-Connector-Park-12",
        "opening_hours": "dawn-23:00"
      },
      "geometry": {
        "type": "Point",
        "coordinates": [
          -122.12553319705881,
          47.67315495588235
        ]
      }
    },
    {
      "type": "Feature",
      "properties": {
        "weight": 1.0,
        "area_sqm": 4555.3,
        "radius_m": 38.1,
        "id": 296802865,
        "hasDetails": true,
        "name": "Dudley Carter Park",
        "address": "159th Place Northeast 7447, Redmond",
        "website": "https://www.redmond.gov/Facilities/Facility/Details/Dudley-Carter-Park-37",
        "opening_hours": "dawn-dusk"
      },
      "geometry": {
        "type": "Point",
        "coordinates": [
          -122.12794884666667,
          47.671207620000004
        ]
      }
    },
    {
      "type": "Feature",
      "properties": {
        "weight": 1.0,
        "area_sqm": 5297.6,
        "radius_m": 41.1,
        "id": 316480809,
        "hasDetails": true,
        "name": "The Stroll",
        "address": "Sammamish River Trail, Redmond"
      },
      "geometry": {
        "type": "Point",
        "coordinates": [
          -122.13184792777777,
          47.67729448611111
        ]
      }
    },
    {
      "type": "Feature",
      "properties": {
        "weight": 1.0,
        "area_sqm": 38515.1,
        "radius_m": 110.7
      },
      "geometry": {
        "type": "Point",
        "coordinates": [
          -122.08117960400001,
          47.677143515999994
        ]
      }
    },
    {
      "type": "Feature",
      "properties": {
        "weight": 1.0,
        "area_sqm": 21963.3,
        "radius_m": 83.6,
        "id": 369791522,
        "hasDetails": true,
        "name": "Redmond West Wetlands",
        "address": "Northeast 60th Street, Redmond",
        "opening_hours": "dawn-dusk"
      },
      "geometry": {
        "type": "Point",
        "coordinates": [
          -122.1377164142857,
          47.66003814285714
        ]
      }
    },
    {
      "type": "Feature",
      "properties": {
        "weight": 1.0,
        "area_sqm": 831666.8,
        "radius_m": 514.5
      },
      "geometry": {
        "type": "Point",
        "coordinates": [
          -122.04602871136363,
          47.64459221136363
        ]
      }
    },
    {
      "type": "Feature",
      "properties": {
        "weight": 1.0,
        "area_sqm": 5385.6,
        "radius_m": 41.4,
        "id": 424596658,
        "hasDetails": true,
        "name": "Sunset Gardens Park",
        "address": "Northeast 95th Street 18304, Redmond",
        "website": "https://www.redmond.gov/Facilities/Facility/Details/Sunset-Gardens-Park-52",
        "opening_hours": "dawn-dusk"
      },
      "geometry": {
        "type": "Point",
        "coordinates": [
          -122.09595777,
          47.686135730000004
        ]
      }
    },
    {
      "type": "Feature",
      "properties": {
        "weight": 1.0,
        "area_sqm": 276.8,
        "radius_m": 9.4
      },
      "geometry": {
        "type": "Point",
        "coordinates": [
          -122.12133627,
          47.7101695
        ]
      }
    },
    {
      "type": "Feature",
      "properties": {
        "weight": 1.0,
        "area_sqm": 359.9,
        "radius_m": 10.7
      },
      "geometry": {
        "type": "Point",
        "coordinates": [
          -122.13193254,
          47.66655224
        ]
      }
    },
    {
      "type": "Feature",
      "properties": {
        "weight": 1.0,
        "area_sqm": 300.0,
        "radius_m": 9.8
      },
      "geometry": {
        "type": "Point",
        "coordinates": [
          -122.149698475,
          47.7274605375
        ]
      }
    },
    {
      "type": "Feature",
      "properties": {
        "weight": 1.0,
        "area_sqm": 343.2,
        "radius_m": 10.5
      },
      "geometry": {
        "type": "Point",
        "coordinates": [
          -122.14217868,
          47.732710175
        ]
      }
    },
    {
      "type": "Feature",
      "properties": {
        "weight": 1.0,
        "area_sqm": 124629.4,
        "radius_m": 199.2,
        "id": 479194885,
        "hasDetails": true,
        "name": "Sammamish Valley Park",
        "website": "https://www.redmond.gov/Facilities/Facility/Details/Sammamish-Valley-Park-46",
        "opening_hours": "dawn-dusk"
      },
      "geometry": {
        "type": "Point",
        "coordinates": [
          -122.15054735999999,
          47.70638334
        ]
      }
    },
    {
      "type": "Feature",
      "properties": {
        "weight": 1.0,
        "area_sqm": 130412.8,
        "radius_m": 203.7,
        "id": 479199365,
        "hasDetails": true,
        "name": "Sixty Acres South",
        "address": "Northeast 116th Street 15101, Redmond"
      },
      "geometry": {
        "type": "Point",
        "coordinates": [
          -122.1409756090909,
          47.7029127
        ]
      }
    },
    {
      "type": "Feature",
      "properties": {
        "weight": 1.0,
        "area_sqm": 3338734.5,
        "radius_m": 1030.9,
        "id": 479215139,
        "hasDetails": true,
        "name": "Redmond Watershed Preserve",
        "address": "Northeast Novelty Hill Road 21760, Redmond",
        "opening_hours": "dawn-dusk"
      },
      "geometry": {
        "type": "Point",
        "coordinates": [
          -122.04879814324326,
          47.71047937027027
        ]
      }
    },
    {
      "type": "Feature",
      "properties": {
        "weight": 1.0,
        "area_sqm": 23493.2,
        "radius_m": 86.5
      },
      "geometry": {
        "type": "Point",
        "coordinates": [
          -122.11019215,
          47.7282877
        ]
      }
    },
    {
      "type": "Feature",
      "properties": {
        "weight": 1.0,
        "area_sqm": 40363.7,
        "radius_m": 113.3
      },
      "geometry": {
        "type": "Point",
        "coordinates": [
          -122.11205465,
          47.73041493333333
        ]
      }
    },
    {
      "type": "Feature",
      "properties": {
        "weight": 1.0,
        "area_sqm": 12241.0,
        "radius_m": 62.4,
        "id": 480267645,
        "hasDetails": true,
        "name": "Luke McRedmond Landing",
        "address": "Redmond Way 15811, Redmond",
        "website": "https://www.redmond.gov/Facilities/Facility/Details/Luke-McRedmond-Landing-65",
        "opening_hours": "dawn-dusk"
      },
      "geometry": {
        "type": "Point",
        "coordinates": [
          -122.13147956249999,
          47.67320052916667
        ]
      }
    },
    {
      "type": "Feature",
      "properties": {
        "weight": 1.0,
        "area_sqm": 10261.5,
        "radius_m": 57.2,
        "id": 480784774,
        "hasDetails": true,
        "name": "Woodlands Park",
        "address": "Northeast 119th Court, Redmond"
      },
      "geometry": {
        "type": "Point",
        "coordinates": [
          -122.10969195294119,
          47.70631492352941
        ]
      }
    },
    {
      "type": "Feature",
      "properties": {
        "weight": 1.0,
        "area_sqm": 1137.3,
        "radius_m": 19.0,
        "id": 480784780,
        "hasDetails": true,
        "name": "Woodlands Community Park",
        "address": "Northeast 120th Street, Redmond"
      },
      "geometry": {
        "type": "Point",
        "coordinates": [
          -122.11196810000001,
          47.7072133
        ]
      }
    },
    {
      "type": "Feature",
      "properties": {
        "weight": 1.0,
        "area_sqm": 5886.5,
        "radius_m": 43.3
      },
      "geometry": {
        "type": "Point",
        "coordinates": [
          -122.11397141333333,
          47.70659724666667
        ]
      }
    },
    {
      "type": "Feature",
      "properties": {
        "weight": 1.0,
        "area_sqm": 1706.0,
        "radius_m": 23.3
      },
      "geometry": {
        "type": "Point",
        "coordinates": [
          -122.10353176666666,
          47.712838675
        ]
      }
    },
    {
      "type": "Feature",
      "properties": {
        "weight": 1.0,
        "area_sqm": 9985.7,
        "radius_m": 56.4,
        "id": 480795320,
        "hasDetails": true,
        "name": "Redmond Bike Park",
        "address": "Northeast 100th Street 17195, Redmond",
        "website": "https://www.redmond.gov/Facilities/Facility/Details/Redmond-Bike-Park-78",
        "opening_hours": "dawn-dusk"
      },
      "geometry": {
        "type": "Point",
        "coordinates": [
          -122.1115308,
          47.68891644
        ]
      }
    },
    {
      "type": "Feature",
      "properties": {
        "weight": 1.0,
        "area_sqm": 280.5,
        "radius_m": 9.4,
        "id": 490140126,
        "hasDetails": true,
        "name": "O'Leary Park",
        "address": "Leary Way Northeast 78, Redmond",
        "website": "https://www.redmond.gov/Facilities/Facility/Details/OLeary-Park-90",
        "opening_hours": "dawn-dusk"
      },
      "geometry": {
        "type": "Point",
        "coordinates": [
          -122.12305060999999,
          47.67415519
        ]
      }
    },
    {
      "type": "Feature",
      "properties": {
        "weight": 1.0,
        "area_sqm": 153.7,
        "radius_m": 7.0,
        "id": 490141438,
        "hasDetails": true,
        "name": "Flagpole Plaza Park",
        "address": "Redmond Way 16380, Redmond",
        "website": "https://www.redmond.gov/Facilities/Facility/Details/Flagpole-Plaza-Park-89",
        "opening_hours": "dawn-dusk"
      },
      "geometry": {
        "type": "Point",
        "coordinates": [
          -122.12175747777776,
          47.67412358888889
        ]
      }
    },
    {
      "type": "Feature",
      "properties": {
        "weight": 1.0,
        "area_sqm": 3686.5,
        "radius_m": 34.3,
        "id": 490142428,
        "hasDetails": true,
        "name": "Rotary Park",
        "address": "154th Avenue Northeast, Redmond",
        "website": "https://www.redmond.gov/Facilities/Facility/Details/Rotary-Park-92",
        "opening_hours": "dawn-dusk"
      },
      "geometry": {
        "type": "Point",
        "coordinates": [
          -122.13280221999999,
          47.67306998
        ]
      }
    },
    {
      "type": "Feature",
      "properties": {
        "weight": 1.0,
        "area_sqm": 2456.4,
        "radius_m": 28.0
      },
      "geometry": {
        "type": "Point",
        "coordinates": [
          -122.10972612857142,
          47.72014661428572
        ]
      }
    },
    {
      "type": "Feature",
      "properties": {
        "weight": 1.0,
        "area_sqm": 890.1,
        "radius_m": 16.8
      },
      "geometry": {
        "type": "Point",
        "coordinates": [
          -122.10644921666666,
          47.70805873333333
        ]
      }
    },
    {
      "type": "Feature",
      "properties": {
        "weight": 1.0,
        "area_sqm": 1213.7,
        "radius_m": 19.7
      },
      "geometry": {
        "type": "Point",
        "coordinates": [
          -122.1106958142857,
          47.701012514285715
        ]
      }
    },
    {
      "type": "Feature",
      "properties": {
        "weight": 1.0,
        "area_sqm": 968.8,
        "radius_m": 17.6
      },
      "geometry": {
        "type": "Point",
        "coordinates": [
          -122.11832383999999,
          47.70946912
        ]
      }
    },
    {
      "type": "Feature",
      "properties": {
        "weight": 1.0,
        "area_sqm": 10093.4,
        "radius_m": 56.7,
        "id": 654358467,
        "hasDetails": true,
        "name": "Village Green",
        "address": "Eastridge Drive Northeast 11433, Redmond"
      },
      "geometry": {
        "type": "Point",
        "coordinates": [
          -122.021218768,
          47.699609620000004
        ]
      }
    },
    {
      "type": "Feature",
      "properties": {
        "weight": 1.0,
        "area_sqm": 168.8,
        "radius_m": 7.3
      },
      "geometry": {
        "type": "Point",
        "coordinates": [
          -122.0284727,
          47.70506794
        ]
      }
    },
    {
      "type": "Feature",
      "properties": {
        "weight": 1.0,
        "area_sqm": 35.3,
        "radius_m": 3.4
      },
      "geometry": {
        "type": "Point",
        "coordinates": [
          -122.02832396,
          47.70483968
        ]
      }
    },
    {
      "type": "Feature",
      "properties": {
        "weight": 1.0,
        "area_sqm": 35.2,
        "radius_m": 3.3
      },
      "geometry": {
        "type": "Point",
        "coordinates": [
          -122.02817135999999,
          47.704849620000005
        ]
      }
    },
    {
      "type": "Feature",
      "properties": {
        "weight": 1.0,
        "area_sqm": 4936.8,
        "radius_m": 39.6
      },
      "geometry": {
        "type": "Point",
        "coordinates": [
          -122.03339423695651,
          47.677474636956525
        ]
      }
    },
    {
      "type": "Feature",
      "properties": {
        "weight": 1.0,
        "area_sqm": 802.2,
        "radius_m": 16.0
      },
      "geometry": {
        "type": "Point",
        "coordinates": [
          -122.03389851538462,
          47.67536226153846
        ]
      }
    },
    {
      "type": "Feature",
      "properties": {
        "weight": 1.0,
        "area_sqm": 3214.2,
        "radius_m": 32.0
      },
      "geometry": {
        "type": "Point",
        "coordinates": [
          -122.03852912957746,
          47.68870104929578
        ]
      }
    },
    {
      "type": "Feature",
      "properties": {
        "weight": 1.0,
        "area_sqm": 7548.8,
        "radius_m": 49.0
      },
      "geometry": {
        "type": "Point",
        "coordinates": [
          -122.03865072467534,
          47.68605350649351
        ]
      }
    },
    {
      "type": "Feature",
      "properties": {
        "weight": 1.0,
        "area_sqm": 313.2,
        "radius_m": 10.0
      },
      "geometry": {
        "type": "Point",
        "coordinates": [
          -122.032782455,
          47.68577947
        ]
      }
    },
    {
      "type": "Feature",
      "properties": {
        "weight": 1.0,
        "area_sqm": 1003.2,
        "radius_m": 17.9
      },
      "geometry": {
        "type": "Point",
        "coordinates": [
          -122.03273472999999,
          47.678876375
        ]
      }
    },
    {
      "type": "Feature",
      "properties": {
        "weight": 1.0,
        "area_sqm": 1189.6,
        "radius_m": 19.5
      },
      "geometry": {
        "type": "Point",
        "coordinates": [
          -122.03423927857143,
          47.67943485357143
        ]
      }
    },
    {
      "type": "Feature",
      "properties": {
        "weight": 1.0,
        "area_sqm": 4086.8,
        "radius_m": 36.1,
        "id": 668169603,
        "hasDetails": true,
        "name": "Woodlands West Park & Playground",
        "address": "Redmond"
      },
      "geometry": {
        "type": "Point",
        "coordinates": [
          -122.11325085294118,
          47.70538909411765
        ]
      }
    },
    {
      "type": "Feature",
      "properties": {
        "weight": 1.0,
        "area_sqm": 7289.6,
        "radius_m": 48.2
      },
      "geometry": {
        "type": "Point",
        "coordinates": [
          -122.11233268260868,
          47.70445863478261
        ]
      }
    },
    {
      "type": "Feature",
      "properties": {
        "weight": 1.0,
        "area_sqm": 2771.8,
        "radius_m": 29.7
      },
      "geometry": {
        "type": "Point",
        "coordinates": [
          -122.12237836666667,
          47.67262991333334
        ]
      }
    },
    {
      "type": "Feature",
      "properties": {
        "weight": 1.0,
        "area_sqm": 51.2,
        "radius_m": 4.0
      },
      "geometry": {
        "type": "Point",
        "coordinates": [
          -122.02359385625,
          47.67155975625
        ]
      }
    },
    {
      "type": "Feature",
      "properties": {
        "weight": 1.0,
        "area_sqm": 37.5,
        "radius_m": 3.5
      },
      "geometry": {
        "type": "Point",
        "coordinates": [
          -122.02368654761906,
          47.6716323
        ]
      }
    },
    {
      "type": "Feature",
      "properties": {
        "weight": 1.0,
        "area_sqm": 5.4,
        "radius_m": 1.3
      },
      "geometry": {
        "type": "Point",
        "coordinates": [
          -122.02381758888889,
          47.6714667
        ]
      }
    },
    {
      "type": "Feature",
      "properties": {
        "weight": 1.0,
        "area_sqm": 435.4,
        "radius_m": 11.8
      },
      "geometry": {
        "type": "Point",
        "coordinates": [
          -122.02334892564103,
          47.67180541025641
        ]
      }
    },
    {
      "type": "Feature",
      "properties": {
        "weight": 1.0,
        "area_sqm": 8.4,
        "radius_m": 1.6
      },
      "geometry": {
        "type": "Point",
        "coordinates": [
          -122.02350910666665,
          47.67169558666667
        ]
      }
    },
    {
      "type": "Feature",
      "properties": {
        "weight": 1.0,
        "area_sqm": 1865.1,
        "radius_m": 24.4
      },
      "geometry": {
        "type": "Point",
        "coordinates": [
          -122.12579188571429,
          47.70743947142857
        ]
      }
    },
    {
      "type": "Feature",
      "properties": {
        "weight": 1.0,
        "area_sqm": 2583.5,
        "radius_m": 28.7
      },
      "geometry": {
        "type": "Point",
        "coordinates": [
          -122.1245372357143,
          47.705684735714286
        ]
      }
    },
    {
      "type": "Feature",
      "properties": {
        "weight": 1.0,
        "area_sqm": 2017.4,
        "radius_m": 25.3,
        "id": 706235951,
        "hasDetails": true,
        "name": "Greystone Community Park",
        "address": "159th Avenue Northeast, Redmond"
      },
      "geometry": {
        "type": "Point",
        "coordinates": [
          -122.12614833636363,
          47.705603518181825
        ]
      }
    },
    {
      "type": "Feature",
      "properties": {
        "weight": 1.0,
        "area_sqm": 1278.3,
        "radius_m": 20.2,
        "id": 706237975,
        "hasDetails": true,
        "name": "Kensington Community Park",
        "address": "Northeast 117th Street 15847, Redmond"
      },
      "geometry": {
        "type": "Point",
        "coordinates": [
          -122.12771219999999,
          47.70429706
        ]
      }
    },
    {
      "type": "Feature",
      "properties": {
        "weight": 1.0,
        "area_sqm": 2921.9,
        "radius_m": 30.5
      },
      "geometry": {
        "type": "Point",
        "coordinates": [
          -122.10896599166666,
          47.701437274999996
        ]
      }
    },
    {
      "type": "Feature",
      "properties": {
        "weight": 1.0,
        "area_sqm": 937.4,
        "radius_m": 17.3
      },
      "geometry": {
        "type": "Point",
        "coordinates": [
          -122.11467616666665,
          47.67721718333333
        ]
      }
    },
    {
      "type": "Feature",
      "properties": {
        "weight": 1.0,
        "area_sqm": 5874.6,
        "radius_m": 43.2
      },
      "geometry": {
        "type": "Point",
        "coordinates": [
          -122.12627780000001,
          47.683160125
        ]
      }
    },
    {
      "type": "Feature",
      "properties": {
        "weight": 1.0,
        "area_sqm": 1237.3,
        "radius_m": 19.8
      },
      "geometry": {
        "type": "Point",
        "coordinates": [
          -122.12860237857141,
          47.68436238571429
        ]
      }
    },
    {
      "type": "Feature",
      "properties": {
        "weight": 1.0,
        "area_sqm": 809.5,
        "radius_m": 16.1
      },
      "geometry": {
        "type": "Point",
        "coordinates": [
          -122.12215334999999,
          47.70464857857143
        ]
      }
    },
    {
      "type": "Feature",
      "properties": {
        "weight": 1.0,
        "area_sqm": 1344.5,
        "radius_m": 20.7
      },
      "geometry": {
        "type": "Point",
        "coordinates": [
          -122.13089052000001,
          47.7036794
        ]
      }
    },
    {
      "type": "Feature",
      "properties": {
        "weight": 1.0,
        "area_sqm": 584.7,
        "radius_m": 13.6
      },
      "geometry": {
        "type": "Point",
        "coordinates": [
          -122.12877076363635,
          47.70259516363637
        ]
      }
    },
    {
      "type": "Feature",
      "properties": {
        "weight": 1.0,
        "area_sqm": 438.0,
        "radius_m": 11.8
      },
      "geometry": {
        "type": "Point",
        "coordinates": [
          -122.10168612,
          47.704896180000006
        ]
      }
    },
    {
      "type": "Feature",
      "properties": {
        "weight": 1.0,
        "area_sqm": 1398.1,
        "radius_m": 21.1
      },
      "geometry": {
        "type": "Point",
        "coordinates": [
          -122.102742175,
          47.70563456666667
        ]
      }
    },
    {
      "type": "Feature",
      "properties": {
        "weight": 1.0,
        "area_sqm": 455.7,
        "radius_m": 12.0
      },
      "geometry": {
        "type": "Point",
        "coordinates": [
          -122.10298565714287,
          47.70139318571429
        ]
      }
    },
    {
      "type": "Feature",
      "properties": {
        "weight": 1.0,
        "area_sqm": 1179.4,
        "radius_m": 19.4
      },
      "geometry": {
        "type": "Point",
        "coordinates": [
          -122.1004442,
          47.7026414
        ]
      }
    },
    {
      "type": "Feature",
      "properties": {
        "weight": 1.0,
        "area_sqm": 728.3,
        "radius_m": 15.2
      },
      "geometry": {
        "type": "Point",
        "coordinates": [
          -122.11459056666666,
          47.704169400000005
        ]
      }
    },
    {
      "type": "Feature",
      "properties": {
        "weight": 1.0,
        "area_sqm": 270.8,
        "radius_m": 9.3
      },
      "geometry": {
        "type": "Point",
        "coordinates": [
          -122.12092994545455,
          47.70834520909091
        ]
      }
    },
    {
      "type": "Feature",
      "properties": {
        "weight": 1.0,
        "area_sqm": 2460.5,
        "radius_m": 28.0
      },
      "geometry": {
        "type": "Point",
        "coordinates": [
          -122.1056865,
          47.70887532
        ]
      }
    },
    {
      "type": "Feature",
      "properties": {
        "weight": 1.0,
        "area_sqm": 1218.5,
        "radius_m": 19.7
      },
      "geometry": {
        "type": "Point",
        "coordinates": [
          -122.10614135714286,
          47.706861242857144
        ]
      }
    },
    {
      "type": "Feature",
      "properties": {
        "weight": 1.0,
        "area_sqm": 1043.1,
        "radius_m": 18.2
      },
      "geometry": {
        "type": "Point",
        "coordinates": [
          -122.10140711666666,
          47.709698550000006
        ]
      }
    },
    {
      "type": "Feature",
      "properties": {
        "weight": 1.0,
        "area_sqm": 272.5,
        "radius_m": 9.3
      },
      "geometry": {
        "type": "Point",
        "coordinates": [
          -122.1082303375,
          47.7102442875
        ]
      }
    },
    {
      "type": "Feature",
      "properties": {
        "weight": 1.0,
        "area_sqm": 773.9,
        "radius_m": 15.7
      },
      "geometry": {
        "type": "Point",
        "coordinates": [
          -122.11253768000002,
          47.71038198
        ]
      }
    },
    {
      "type": "Feature",
      "properties": {
        "weight": 1.0,
        "area_sqm": 1146.5,
        "radius_m": 19.1
      },
      "geometry": {
        "type": "Point",
        "coordinates": [
          -122.119174325,
          47.7095623
        ]
      }
    },
    {
      "type": "Feature",
      "properties": {
        "weight": 1.0,
        "area_sqm": 173.6,
        "radius_m": 7.4
      },
      "geometry": {
        "type": "Point",
        "coordinates": [
          -122.1198539,
          47.71023281428571
        ]
      }
    },
    {
      "type": "Feature",
      "properties": {
        "weight": 1.0,
        "area_sqm": 60627.0,
        "radius_m": 138.9,
        "id": 842032368,
        "hasDetails": true,
        "name": "Nike Neighborhood Park",
        "address": "Northeast 92nd Street 17207, Redmond",
        "website": "https://www.redmond.gov/Facilities/Facility/Details/Nike-Park-42",
        "opening_hours": "dawn-dusk"
      },
      "geometry": {
        "type": "Point",
        "coordinates": [
          -122.10823112631579,
          47.683092863157896
        ]
      }
    },
    {
      "type": "Feature",
      "properties": {
        "weight": 1.0,
        "area_sqm": 65628.1,
        "radius_m": 144.5,
        "id": 850661172,
        "hasDetails": true,
        "name": "Idylwood Park",
        "address": "West Lake Sammamish Parkway Northeast 3650, Redmond",
        "website": "https://www.redmond.gov/Facilities/Facility/Details/Idylwood-Beach-Park-64",
        "opening_hours": "dawn-dusk"
      },
      "geometry": {
        "type": "Point",
        "coordinates": [
          -122.10269820196078,
          47.64299330588235
        ]
      }
    },
    {
      "type": "Feature",
      "properties": {
        "weight": 1.0,
        "area_sqm": 140.1,
        "radius_m": 6.7
      },
      "geometry": {
        "type": "Point",
        "coordinates": [
          -122.08895292,
          47.66878044
        ]
      }
    },
    {
      "type": "Feature",
      "properties": {
        "weight": 1.0,
        "area_sqm": 20129.1,
        "radius_m": 80.0
      },
      "geometry": {
        "type": "Point",
        "coordinates": [
          -122.0375828255814,
          47.68962654651163
        ]
      }
    },
    {
      "type": "Feature",
      "properties": {
        "weight": 1.0,
        "area_sqm": 1474.5,
        "radius_m": 21.7,
        "id": 1025393597,
        "hasDetails": true,
        "name": "Tuscany Community Park",
        "opening_hours": "sunrise-sunset"
      },
      "geometry": {
        "type": "Point",
        "coordinates": [
          -122.07342198181819,
          47.710593009090914
        ]
      }
    },
    {
      "type": "Feature",
      "properties": {
        "weight": 1.0,
        "area_sqm": 683447.0,
        "radius_m": 466.4
      },
      "geometry": {
        "type": "Point",
        "coordinates": [
          -122.08127745806452,
          47.663613932258066
        ]
      }
    },
    {
      "type": "Feature",
      "properties": {
        "weight": 1.0,
        "area_sqm": 4544.2,
        "radius_m": 38.0,
        "id": 1047298632,
        "hasDetails": true,
        "name": "Bridle Trails Valley Creek Park",
        "address": "140th Avenue Northeast 4432, Bellevue",
        "opening_hours": "dawn-dusk"
      },
      "geometry": {
        "type": "Point",
        "coordinates": [
          -122.15262933333332,
          47.65073736666667
        ]
      }
    },
    {
      "type": "Feature",
      "properties": {
        "weight": 1.0,
        "area_sqm": 403.8,
        "radius_m": 11.3
      },
      "geometry": {
        "type": "Point",
        "coordinates": [
          -122.09825765000001,
          47.6697678625
        ]
      }
    },
    {
      "type": "Feature",
      "properties": {
        "weight": 1.0,
        "area_sqm": 1664.9,
        "radius_m": 23.0
      },
      "geometry": {
        "type": "Point",
        "coordinates": [
          -122.09967741999999,
          47.66924239
        ]
      }
    },
    {
      "type": "Feature",
      "properties": {
        "weight": 1.0,
        "area_sqm": 352.1,
        "radius_m": 10.6
      },
      "geometry": {
        "type": "Point",
        "coordinates": [
          -122.10382025454545,
          47.714291281818184
        ]
      }
    },
    {
      "type": "Feature",
      "properties": {
        "weight": 1.0,
        "area_sqm": 458.2,
        "radius_m": 12.1
      },
      "geometry": {
        "type": "Point",
        "coordinates": [
          -122.13227338333334,
          47.707284344444446
        ]
      }
    },
    {
      "type": "Feature",
      "properties": {
        "weight": 1.0,
        "area_sqm": 232.4,
        "radius_m": 8.6
      },
      "geometry": {
        "type": "Point",
        "coordinates": [
          -122.10424033333334,
          47.66708415
        ]
      }
    },
    {
      "type": "Feature",
      "properties": {
        "weight": 1.0,
        "area_sqm": 2539.6,
        "radius_m": 28.4
      },
      "geometry": {
        "type": "Point",
        "coordinates": [
          -122.07986988,
          47.6469802
        ]
      }
    },
    {
      "type": "Feature",
      "properties": {
        "weight": 1.0,
        "area_sqm": 1451.2,
        "radius_m": 21.5
      },
      "geometry": {
        "type": "Point",
        "coordinates": [
          -122.08386054827587,
          47.66666077241379
        ]
      }
    },
    {
      "type": "Feature",
      "properties": {
        "weight": 1.0,
        "area_sqm": 218.8,
        "radius_m": 8.3
      },
      "geometry": {
        "type": "Point",
        "coordinates": [
          -122.09118845999998,
          47.7018203
        ]
      }
    },
    {
      "type": "Feature",
      "properties": {
        "weight": 1.0,
        "area_sqm": 275.5,
        "radius_m": 9.4
      },
      "geometry": {
        "type": "Point",
        "coordinates": [
          -122.09134366666666,
          47.70041
        ]
      }
    },
    {
      "type": "Feature",
      "properties": {
        "weight": 1.0,
        "area_sqm": 12788.0,
        "radius_m": 63.8
      },
      "geometry": {
        "type": "Point",
        "coordinates": [
          -122.1067587,
          47.68844906875
        ]
      }
    },
    {
      "type": "Feature",
      "properties": {
        "weight": 1.0,
        "area_sqm": 409.5,
        "radius_m": 11.4
      },
      "geometry": {
        "type": "Point",
        "coordinates": [
          -122.040355245,
          47.687733300000005
        ]
      }
    },
    {
      "type": "Feature",
      "properties": {
        "weight": 1.0,
        "area_sqm": 832.6,
        "radius_m": 16.3
      },
      "geometry": {
        "type": "Point",
        "coordinates": [
          -122.03993712857142,
          47.690828485714285
        ]
      }
    },
    {
      "type": "Feature",
      "properties": {
        "weight": 1.0,
        "area_sqm": 1058.6,
        "radius_m": 18.4
      },
      "geometry": {
        "type": "Point",
        "coordinates": [
          -122.0429389125,
          47.6900176625
        ]
      }
    },
    {
      "type": "Feature",
      "properties": {
        "weight": 1.0,
        "area_sqm": 163.3,
        "radius_m": 7.2
      },
      "geometry": {
        "type": "Point",
        "coordinates": [
          -122.0808726875,
          47.6675241625
        ]
      }
    },
    {
      "type": "Feature",
      "properties": {
        "weight": 1.0,
        "area_sqm": 841.5,
        "radius_m": 16.4
      },
      "geometry": {
        "type": "Point",
        "coordinates": [
          -122.08535507142857,
          47.71372357142857
        ]
      }
    },
    {
      "type": "Feature",
      "properties": {
        "weight": 1.0,
        "area_sqm": 217.0,
        "radius_m": 8.3
      },
      "geometry": {
        "type": "Point",
        "coordinates": [
          -122.13172913636363,
          47.64739365454545
        ]
      }
    },
    {
      "type": "Feature",
      "properties": {
        "weight": 1.0,
        "area_sqm": 326.1,
        "radius_m": 10.2
      },
      "geometry": {
        "type": "Point",
        "coordinates": [
          -122.13201707692308,
          47.647383861538465
        ]
      }
    },
    {
      "type": "Feature",
      "properties": {
        "weight": 1.0,
        "area_sqm": 32.3,
        "radius_m": 3.2
      },
      "geometry": {
        "type": "Point",
        "coordinates": [
          -122.132005405,
          47.646532815
        ]
      }
    },
    {
      "type": "Feature",
      "properties": {
        "weight": 1.0,
        "area_sqm": 966.6,
        "radius_m": 17.5
      },
      "geometry": {
        "type": "Point",
        "coordinates": [
          -122.13196828157893,
          47.64668671052632
        ]
      }
    },
    {
      "type": "Feature",
      "properties": {
        "weight": 1.0,
        "area_sqm": 102.5,
        "radius_m": 5.7
      },
      "geometry": {
        "type": "Point",
        "coordinates": [
          -122.13201141875,
          47.64627721875
        ]
      }
    },
    {
      "type": "Feature",
      "properties": {
        "weight": 1.0,
        "area_sqm": 651.8,
        "radius_m": 14.4
      },
      "geometry": {
        "type": "Point",
        "coordinates": [
          -122.13138806666666,
          47.64624077777778
        ]
      }
    },
    {
      "type": "Feature",
      "properties": {
        "weight": 1.0,
        "area_sqm": 292.0,
        "radius_m": 9.6
      },
      "geometry": {
        "type": "Point",
        "coordinates": [
          -122.13106712941175,
          47.647026370588236
        ]
      }
    },
    {
      "type": "Feature",
      "properties": {
        "weight": 1.0,
        "area_sqm": 110.7,
        "radius_m": 5.9
      },
      "geometry": {
        "type": "Point",
        "coordinates": [
          -122.13134436666668,
          47.64692964444444
        ]
      }
    },
    {
      "type": "Feature",
      "properties": {
        "weight": 1.0,
        "area_sqm": 154.1,
        "radius_m": 7.0
      },
      "geometry": {
        "type": "Point",
        "coordinates": [
          -122.13133697999999,
          47.64659372
        ]
      }
    },
    {
      "type": "Feature",
      "properties": {
        "weight": 1.0,
        "area_sqm": 20.1,
        "radius_m": 2.5
      },
      "geometry": {
        "type": "Point",
        "coordinates": [
          -122.13120966,
          47.646514720000006
        ]
      }
    },
    {
      "type": "Feature",
      "properties": {
        "weight": 1.0,
        "area_sqm": 87.1,
        "radius_m": 5.3
      },
      "geometry": {
        "type": "Point",
        "coordinates": [
          -122.13099874444444,
          47.646468999999996
        ]
      }
    },
    {
      "type": "Feature",
      "properties": {
        "weight": 1.0,
        "area_sqm": 50.6,
        "radius_m": 4.0
      },
      "geometry": {
        "type": "Point",
        "coordinates": [
          -122.13091009230769,
          47.64635079230769
        ]
      }
    },
    {
      "type": "Feature",
      "properties": {
        "weight": 1.0,
        "area_sqm": 54.6,
        "radius_m": 4.2
      },
      "geometry": {
        "type": "Point",
        "coordinates": [
          -122.13119280000001,
          47.64717893333333
        ]
      }
    },
    {
      "type": "Feature",
      "properties": {
        "weight": 1.0,
        "area_sqm": 26.5,
        "radius_m": 2.9
      },
      "geometry": {
        "type": "Point",
        "coordinates": [
          -122.131024,
          47.6467665875
        ]
      }
    },
    {
      "type": "Feature",
      "properties": {
        "weight": 1.0,
        "area_sqm": 22.2,
        "radius_m": 2.7
      },
      "geometry": {
        "type": "Point",
        "coordinates": [
          -122.13106396,
          47.64665642
        ]
      }
    },
    {
      "type": "Feature",
      "properties": {
        "weight": 1.0,
        "area_sqm": 21.1,
        "radius_m": 2.6
      },
      "geometry": {
        "type": "Point",
        "coordinates": [
          -122.1134217142857,
          47.692564571428576
        ]
      }
    },
    {
      "type": "Feature",
      "properties": {
        "weight": 1.0,
        "area_sqm": 8.3,
        "radius_m": 1.6
      },
      "geometry": {
        "type": "Point",
        "coordinates": [
          -122.11304500000001,
          47.69207376
        ]
      }
    },
    {
      "type": "Feature",
      "properties": {
        "weight": 1.0,
        "area_sqm": 18.4,
        "radius_m": 2.4
      },
      "geometry": {
        "type": "Point",
        "coordinates": [
          -122.11319055,
          47.692352066666665
        ]
      }
    },
    {
      "type": "Feature",
      "properties": {
        "weight": 1.0,
        "area_sqm": 19.3,
        "radius_m": 2.5
      },
      "geometry": {
        "type": "Point",
        "coordinates": [
          -122.1132911,
          47.69228728
        ]
      }
    },
    {
      "type": "Feature",
      "properties": {
        "weight": 1.0,
        "area_sqm": 42.4,
        "radius_m": 3.7
      },
      "geometry": {
        "type": "Point",
        "coordinates": [
          -122.11331724166666,
          47.69211406666667
        ]
      }
    },
    {
      "type": "Feature",
      "properties": {
        "weight": 1.0,
        "area_sqm": 18.9,
        "radius_m": 2.5
      },
      "geometry": {
        "type": "Point",
        "coordinates": [
          -122.11309630000001,
          47.69259629
        ]
      }
    },
    {
      "type": "Feature",
      "properties": {
        "weight": 1.0,
        "area_sqm": 85.6,
        "radius_m": 5.2
      },
      "geometry": {
        "type": "Point",
        "coordinates": [
          -122.11358451666666,
          47.69151796666667
        ]
      }
    },
    {
      "type": "Feature",
      "properties": {
        "weight": 1.0,
        "area_sqm": 161.0,
        "radius_m": 7.2
      },
      "geometry": {
        "type": "Point",
        "coordinates": [
          -122.11371712,
          47.69158192
        ]
      }
    },
    {
      "type": "Feature",
      "properties": {
        "weight": 1.0,
        "area_sqm": 21.5,
        "radius_m": 2.6
      },
      "geometry": {
        "type": "Point",
        "coordinates": [
          -122.11301896666667,
          47.691533533333335
        ]
      }
    },
    {
      "type": "Feature",
      "properties": {
        "weight": 1.0,
        "area_sqm": 51.9,
        "radius_m": 4.1
      },
      "geometry": {
        "type": "Point",
        "coordinates": [
          -122.11320464,
          47.69154994
        ]
      }
    },
    {
      "type": "Feature",
      "properties": {
        "weight": 1.0,
        "area_sqm": 23.6,
        "radius_m": 2.7
      },
      "geometry": {
        "type": "Point",
        "coordinates": [
          -122.1134132,
          47.69150404285715
        ]
      }
    },
    {
      "type": "Feature",
      "properties": {
        "weight": 1.0,
        "area_sqm": 16.1,
        "radius_m": 2.3
      },
      "geometry": {
        "type": "Point",
        "coordinates": [
          -122.11245326000001,
          47.69228368
        ]
      }
    },
    {
      "type": "Feature",
      "properties": {
        "weight": 1.0,
        "area_sqm": 218.1,
        "radius_m": 8.3
      },
      "geometry": {
        "type": "Point",
        "coordinates": [
          -122.10600454,
          47.67742556
        ]
      }
    },
    {
      "type": "Feature",
      "properties": {
        "weight": 1.0,
        "area_sqm": 105.6,
        "radius_m": 5.8
      },
      "geometry": {
        "type": "Point",
        "coordinates": [
          -122.10586761666667,
          47.69481645
        ]
      }
    },
    {
      "type": "Feature",
      "properties": {
        "weight": 1.0,
        "area_sqm": 41.3,
        "radius_m": 3.6
      },
      "geometry": {
        "type": "Point",
        "coordinates": [
          -122.1061084,
          47.69467846
        ]
      }
    },
    {
      "type": "Feature",
      "properties": {
        "weight": 1.0,
        "area_sqm": 20.6,
        "radius_m": 2.6
      },
      "geometry": {
        "type": "Point",
        "coordinates": [
          -122.10602994615384,
          47.69440084615384
        ]
      }
    },
    {
      "type": "Feature",
      "properties": {
        "weight": 1.0,
        "area_sqm": 287.8,
        "radius_m": 9.6
      },
      "geometry": {
        "type": "Point",
        "coordinates": [
          -122.10656260769231,
          47.69413839230769
        ]
      }
    },
    {
      "type": "Feature",
      "properties": {
        "weight": 1.0,
        "area_sqm": 93.3,
        "radius_m": 5.5
      },
      "geometry": {
        "type": "Point",
        "coordinates": [
          -122.106955,
          47.694399759999996
        ]
      }
    },
    {
      "type": "Feature",
      "properties": {
        "weight": 1.0,
        "area_sqm": 278.9,
        "radius_m": 9.4
      },
      "geometry": {
        "type": "Point",
        "coordinates": [
          -122.10695295999999,
          47.6945463
        ]
      }
    },
    {
      "type": "Feature",
      "properties": {
        "weight": 1.0,
        "area_sqm": 325.9,
        "radius_m": 10.2
      },
      "geometry": {
        "type": "Point",
        "coordinates": [
          -122.1069652375,
          47.6931686625
        ]
      }
    },
    {
      "type": "Feature",
      "properties": {
        "weight": 1.0,
        "area_sqm": 277.7,
        "radius_m": 9.4
      },
      "geometry": {
        "type": "Point",
        "coordinates": [
          -122.10698026,
          47.69394502
        ]
      }
    },
    {
      "type": "Feature",
      "properties": {
        "weight": 1.0,
        "area_sqm": 22.3,
        "radius_m": 2.7
      },
      "geometry": {
        "type": "Point",
        "coordinates": [
          -122.10585525714285,
          47.69504955714286
        ]
      }
    },
    {
      "type": "Feature",
      "properties": {
        "weight": 1.0,
        "area_sqm": 22.8,
        "radius_m": 2.7
      },
      "geometry": {
        "type": "Point",
        "coordinates": [
          -122.10582632,
          47.69516518
        ]
      }
    },
    {
      "type": "Feature",
      "properties": {
        "weight": 1.0,
        "area_sqm": 74.5,
        "radius_m": 4.9
      },
      "geometry": {
        "type": "Point",
        "coordinates": [
          -122.10614727142857,
          47.69525978571429
        ]
      }
    },
    {
      "type": "Feature",
      "properties": {
        "weight": 1.0,
        "area_sqm": 141.2,
        "radius_m": 6.7
      },
      "geometry": {
        "type": "Point",
        "coordinates": [
          -122.10605184545453,
          47.695396609090906
        ]
      }
    },
    {
      "type": "Feature",
      "properties": {
        "weight": 1.0,
        "area_sqm": 34.3,
        "radius_m": 3.3
      },
      "geometry": {
        "type": "Point",
        "coordinates": [
          -122.10581421818182,
          47.69495875454545
        ]
      }
    },
    {
      "type": "Feature",
      "properties": {
        "weight": 1.0,
        "area_sqm": 59.4,
        "radius_m": 4.4
      },
      "geometry": {
        "type": "Point",
        "coordinates": [
          -122.10814404,
          47.69560706
        ]
      }
    },
    {
      "type": "Feature",
      "properties": {
        "weight": 1.0,
        "area_sqm": 376.8,
        "radius_m": 11.0
      },
      "geometry": {
        "type": "Point",
        "coordinates": [
          -122.1065959,
          47.694409622222224
        ]
      }
    },
    {
      "type": "Feature",
      "properties": {
        "weight": 1.0,
        "area_sqm": 1200.5,
        "radius_m": 19.5,
        "id": 1427461434,
        "hasDetails": true,
        "name": "Flicker's Pond",
        "address": "Northeast 40th Street, Redmond"
      },
      "geometry": {
        "type": "Point",
        "coordinates": [
          -122.11465150000001,
          47.6458638
        ]
      }
    },
    {
      "type": "Feature",
      "properties": {
        "weight": 1.0,
        "area_sqm": 199.9,
        "radius_m": 8.0
      },
      "geometry": {
        "type": "Point",
        "coordinates": [
          -122.07479332,
          47.69271002
        ]
      }
    },
    {
      "type": "Feature",
      "properties": {
        "weight": 1.0,
        "area_sqm": 13.2,
        "radius_m": 2.1
      },
      "geometry": {
        "type": "Point",
        "coordinates": [
          -122.10813138333333,
          47.69527606666667
        ]
      }
    },
    {
      "type": "Feature",
      "properties": {
        "weight": 1.0,
        "area_sqm": 67.9,
        "radius_m": 4.6
      },
      "geometry": {
        "type": "Point",
        "coordinates": [
          -122.10896522,
          47.693512479999995
        ]
      }
    },
    {
      "type": "Feature",
      "properties": {
        "weight": 1.0,
        "area_sqm": 89.3,
        "radius_m": 5.3
      },
      "geometry": {
        "type": "Point",
        "coordinates": [
          -122.10896651666667,
          47.693169149999996
        ]
      }
    },
    {
      "type": "Feature",
      "properties": {
        "weight": 1.0,
        "area_sqm": 106.5,
        "radius_m": 5.8
      },
      "geometry": {
        "type": "Point",
        "coordinates": [
          -122.10896070000001,
          47.6938269
        ]
      }
    },
    {
      "type": "Feature",
      "properties": {
        "weight": 1.0,
        "area_sqm": 30.9,
        "radius_m": 3.1
      },
      "geometry": {
        "type": "Point",
        "coordinates": [
          -122.10910919999999,
          47.69378405
        ]
      }
    },
    {
      "type": "Feature",
      "properties": {
        "weight": 1.0,
        "area_sqm": 317.1,
        "radius_m": 10.0
      },
      "geometry": {
        "type": "Point",
        "coordinates": [
          -122.10911371818183,
          47.694313309090916
        ]
      }
    },
    {
      "type": "Feature",
      "properties": {
        "weight": 1.0,
        "area_sqm": 243.9,
        "radius_m": 8.8
      },
      "geometry": {
        "type": "Point",
        "coordinates": [
          -122.10896018333334,
          47.69443758333333
        ]
      }
    },
    {
      "type": "Feature",
      "properties": {
        "weight": 1.0,
        "area_sqm": 14.4,
        "radius_m": 2.1
      },
      "geometry": {
        "type": "Point",
        "coordinates": [
          -122.1089598,
          47.69483846666666
        ]
      }
    },
    {
      "type": "Feature",
      "properties": {
        "weight": 1.0,
        "area_sqm": 380.7,
        "radius_m": 11.0
      },
      "geometry": {
        "type": "Point",
        "coordinates": [
          -122.13684155,
          47.65262676428572
        ]
      }
    },
    {
      "type": "Feature",
      "properties": {
        "weight": 1.0,
        "area_sqm": 1227.4,
        "radius_m": 19.8
      },
      "geometry": {
        "type": "Point",
        "coordinates": [
          -122.13455324285715,
          47.64758016428571
        ]
      }
    },
    {
      "type": "Feature",
      "properties": {
        "weight": 1.0,
        "area_sqm": 96.8,
        "radius_m": 5.6
      },
      "geometry": {
        "type": "Point",
        "coordinates": [
          -122.13448911,
          47.648052289999995
        ]
      }
    },
    {
      "type": "Feature",
      "properties": {
        "weight": 1.0,
        "area_sqm": 147.1,
        "radius_m": 6.8
      },
      "geometry": {
        "type": "Point",
        "coordinates": [
          -122.1339374857143,
          47.64671030714286
        ]
      }
    },
    {
      "type": "Feature",
      "properties": {
        "weight": 1.0,
        "area_sqm": 720.2,
        "radius_m": 15.1
      },
      "geometry": {
        "type": "Point",
        "coordinates": [
          -122.1340331875,
          47.64677744375
        ]
      }
    },
    {
      "type": "Feature",
      "properties": {
        "weight": 1.0,
        "area_sqm": 40.2,
        "radius_m": 3.6
      },
      "geometry": {
        "type": "Point",
        "coordinates": [
          -122.13369718749999,
          47.646394975
        ]
      }
    },
    {
      "type": "Feature",
      "properties": {
        "weight": 1.0,
        "area_sqm": 286.4,
        "radius_m": 9.5
      },
      "geometry": {
        "type": "Point",
        "coordinates": [
          -122.13381196,
          47.64629234
        ]
      }
    },
    {
      "type": "Feature",
      "properties": {
        "weight": 1.0,
        "area_sqm": 165.1,
        "radius_m": 7.3
      },
      "geometry": {
        "type": "Point",
        "coordinates": [
          -122.1334891090909,
          47.646246818181815
        ]
      }
    },
    {
      "type": "Feature",
      "properties": {
        "weight": 1.0,
        "area_sqm": 31.4,
        "radius_m": 3.2
      },
      "geometry": {
        "type": "Point",
        "coordinates": [
          -122.11827046923077,
          47.67360615384616
        ]
      }
    },
    {
      "type": "Feature",
      "properties": {
        "weight": 1.0,
        "area_sqm": 6.5,
        "radius_m": 1.4
      },
      "geometry": {
        "type": "Point",
        "coordinates": [
          -122.11803082857143,
          47.67363387142858
        ]
      }
    },
    {
      "type": "Feature",
      "properties": {
        "weight": 1.0,
        "area_sqm": 145.2,
        "radius_m": 6.8
      },
      "geometry": {
        "type": "Point",
        "coordinates": [
          -122.11820363,
          47.67376514
        ]
      }
    },
    {
      "type": "Feature",
      "properties": {
        "weight": 1.0,
        "area_sqm": 70.8,
        "radius_m": 4.7
      },
      "geometry": {
        "type": "Point",
        "coordinates": [
          -122.118060375,
          47.673001925
        ]
      }
    },
    {
      "type": "Feature",
      "properties": {
        "weight": 1.0,
        "area_sqm": 21.1,
        "radius_m": 2.6
      },
      "geometry": {
        "type": "Point",
        "coordinates": [
          -122.11827047142857,
          47.67306522857143
        ]
      }
    },
    {
      "type": "Feature",
      "properties": {
        "weight": 1.0,
        "area_sqm": 265.3,
        "radius_m": 9.2
      },
      "geometry": {
        "type": "Point",
        "coordinates": [
          -122.10687843333334,
          47.694832416666664
        ]
      }
    },
    {
      "type": "Feature",
      "properties": {
        "weight": 1.0,
        "area_sqm": 511.0,
        "radius_m": 12.8
      },
      "geometry": {
        "type": "Point",
        "coordinates": [
          -122.10727378571428,
          47.69496372857143
        ]
      }
    },
    {
      "type": "Feature",
      "properties": {
        "weight": 1.0,
        "area_sqm": 93.3,
        "radius_m": 5.5
      },
      "geometry": {
        "type": "Point",
        "coordinates": [
          -122.10782887999999,
          47.6948884
        ]
      }
    },
    {
      "type": "Feature",
      "properties": {
        "weight": 1.0,
        "area_sqm": 452.5,
        "radius_m": 12.0
      },
      "geometry": {
        "type": "Point",
        "coordinates": [
          -122.10782856,
          47.69501222
        ]
      }
    },
    {
      "type": "Feature",
      "properties": {
        "weight": 1.0,
        "area_sqm": 6592.3,
        "radius_m": 45.8
      },
      "geometry": {
        "type": "Point",
        "coordinates": [
          -122.0809389,
          47.699382
        ]
      }
    },
    {
      "type": "Feature",
      "properties": {
        "weight": 1.0,
        "area_sqm": 294.3,
        "radius_m": 9.7
      },
      "geometry": {
        "type": "Point",
        "coordinates": [
          -122.0581404,
          47.69648682
        ]
      }
    },
    {
      "type": "Feature",
      "properties": {
        "weight": 1.0,
        "area_sqm": 135.9,
        "radius_m": 6.6
      },
      "geometry": {
        "type": "Point",
        "coordinates": [
          -122.06352342857143,
          47.70133331428571
        ]
      }
    },
    {
      "type": "Feature",
      "properties": {
        "weight": 1.0,
        "area_sqm": 258.8,
        "radius_m": 9.1
      },
      "geometry": {
        "type": "Point",
        "coordinates": [
          -122.06011501111112,
          47.70008861111111
        ]
      }
    },
    {
      "type": "Feature",
      "properties": {
        "weight": 1.0,
        "area_sqm": 189.7,
        "radius_m": 7.8
      },
      "geometry": {
        "type": "Point",
        "coordinates": [
          -122.07152268333334,
          47.68686903333333
        ]
      }
    },
    {
      "type": "Feature",
      "properties": {
        "weight": 1.0,
        "area_sqm": 453.0,
        "radius_m": 12.0
      },
      "geometry": {
        "type": "Point",
        "coordinates": [
          -122.06832635999999,
          47.6850673
        ]
      }
    },
    {
      "type": "Feature",
      "properties": {
        "weight": 1.0,
        "area_sqm": 10589.4,
        "radius_m": 58.1
      },
      "geometry": {
        "type": "Point",
        "coordinates": [
          -122.07093877857143,
          47.68246896071429
        ]
      }
    },
    {
      "type": "Feature",
      "properties": {
        "weight": 1.0,
        "area_sqm": 334.3,
        "radius_m": 10.3
      },
      "geometry": {
        "type": "Point",
        "coordinates": [
          -122.06502972941176,
          47.681379299999996
        ]
      }
    },
    {
      "type": "Feature",
      "properties": {
        "weight": 1.0,
        "area_sqm": 134.3,
        "radius_m": 6.5
      },
      "geometry": {
        "type": "Point",
        "coordinates": [
          -122.0635018,
          47.68129722
        ]
      }
    },
    {
      "type": "Feature",
      "properties": {
        "weight": 1.0,
        "area_sqm": 651.0,
        "radius_m": 14.4
      },
      "geometry": {
        "type": "Point",
        "coordinates": [
          -122.06293328823529,
          47.679643664705885
        ]
      }
    },
    {
      "type": "Feature",
      "properties": {
        "weight": 1.0,
        "area_sqm": 126.7,
        "radius_m": 6.3
      },
      "geometry": {
        "type": "Point",
        "coordinates": [
          -122.06325449230768,
          47.67972304615385
        ]
      }
    },
    {
      "type": "Feature",
      "properties": {
        "weight": 1.0,
        "area_sqm": 156.6,
        "radius_m": 7.1
      },
      "geometry": {
        "type": "Point",
        "coordinates": [
          -122.06332970000001,
          47.67949611
        ]
      }
    },
    {
      "type": "Feature",
      "properties": {
        "weight": 1.0,
        "area_sqm": 49.5,
        "radius_m": 4.0
      },
      "geometry": {
        "type": "Point",
        "coordinates": [
          -122.06358282222222,
          47.67945452222222
        ]
      }
    },
    {
      "type": "Feature",
      "properties": {
        "weight": 1.0,
        "area_sqm": 42.1,
        "radius_m": 3.7
      },
      "geometry": {
        "type": "Point",
        "coordinates": [
          -122.06388667142856,
          47.67944934285714
        ]
      }
    },
    {
      "type": "Feature",
      "properties": {
        "weight": 1.0,
        "area_sqm": 57.9,
        "radius_m": 4.3
      },
      "geometry": {
        "type": "Point",
        "coordinates": [
          -122.0633819,
          47.67934436
        ]
      }
    },
    {
      "type": "Feature",
      "properties": {
        "weight": 1.0,
        "area_sqm": 17.4,
        "radius_m": 2.4
      },
      "geometry": {
        "type": "Point",
        "coordinates": [
          -122.06294614285714,
          47.67934485714285
        ]
      }
    },
    {
      "type": "Feature",
      "properties": {
        "weight": 1.0,
        "area_sqm": 153.0,
        "radius_m": 7.0
      },
      "geometry": {
        "type": "Point",
        "coordinates": [
          -122.0646472909091,
          47.67911082727273
        ]
      }
    },
    {
      "type": "Feature",
      "properties": {
        "weight": 1.0,
        "area_sqm": 517.5,
        "radius_m": 12.8
      },
      "geometry": {
        "type": "Point",
        "coordinates": [
          -122.06460402,
          47.67974784
        ]
      }
    },
    {
      "type": "Feature",
      "properties": {
        "weight": 1.0,
        "area_sqm": 289.9,
        "radius_m": 9.6
      },
      "geometry": {
        "type": "Point",
        "coordinates": [
          -122.06420894444445,
          47.67981392222222
        ]
      }
    },
    {
      "type": "Feature",
      "properties": {
        "weight": 1.0,
        "area_sqm": 1051.5,
        "radius_m": 18.3
      },
      "geometry": {
        "type": "Point",
        "coordinates": [
          -122.06517119655172,
          47.67926947931034
        ]
      }
    },
    {
      "type": "Feature",
      "properties": {
        "weight": 1.0,
        "area_sqm": 419.8,
        "radius_m": 11.6
      },
      "geometry": {
        "type": "Point",
        "coordinates": [
          -122.064620432,
          47.679320084000004
        ]
      }
    },
    {
      "type": "Feature",
      "properties": {
        "weight": 1.0,
        "area_sqm": 166.2,
        "radius_m": 7.3
      },
      "geometry": {
        "type": "Point",
        "coordinates": [
          -122.0649749857143,
          47.67945587142857
        ]
      }
    },
    {
      "type": "Feature",
      "properties": {
        "weight": 1.0,
        "area_sqm": 238.8,
        "radius_m": 8.7
      },
      "geometry": {
        "type": "Point",
        "coordinates": [
          -122.06467797272727,
          47.67958451818181
        ]
      }
    },
    {
      "type": "Feature",
      "properties": {
        "weight": 1.0,
        "area_sqm": 197.8,
        "radius_m": 7.9
      },
      "geometry": {
        "type": "Point",
        "coordinates": [
          -122.07141128999999,
          47.69295058
        ]
      }
    },
    {
      "type": "Feature",
      "properties": {
        "weight": 1.0,
        "area_sqm": 86.2,
        "radius_m": 5.2
      },
      "geometry": {
        "type": "Point",
        "coordinates": [
          -122.06846123333334,
          47.69247152222223
        ]
      }
    },
    {
      "type": "Feature",
      "properties": {
        "weight": 1.0,
        "area_sqm": 92.3,
        "radius_m": 5.4
      },
      "geometry": {
        "type": "Point",
        "coordinates": [
          -122.06731766,
          47.70770144
        ]
      }
    },
    {
      "type": "Feature",
      "properties": {
        "weight": 1.0,
        "area_sqm": 500.0,
        "radius_m": 12.6
      },
      "geometry": {
        "type": "Point",
        "coordinates": [
          -122.06596955714285,
          47.708669678571425
        ]
      }
    },
    {
      "type": "Feature",
      "properties": {
        "weight": 1.0,
        "area_sqm": 146.1,
        "radius_m": 6.8
      },
      "geometry": {
        "type": "Point",
        "coordinates": [
          -122.06284908,
          47.70894796
        ]
      }
    },
    {
      "type": "Feature",
      "properties": {
        "weight": 1.0,
        "area_sqm": 402.1,
        "radius_m": 11.3
      },
      "geometry": {
        "type": "Point",
        "coordinates": [
          -122.05733080769231,
          47.70887144615384
        ]
      }
    },
    {
      "type": "Feature",
      "properties": {
        "weight": 1.0,
        "area_sqm": 1903.0,
        "radius_m": 24.6
      },
      "geometry": {
        "type": "Point",
        "coordinates": [
          -122.05765552142857,
          47.708849171428575
        ]
      }
    },
    {
      "type": "Feature",
      "properties": {
        "weight": 1.0,
        "area_sqm": 29.6,
        "radius_m": 3.1
      },
      "geometry": {
        "type": "Point",
        "coordinates": [
          -122.0982368375,
          47.6767096
        ]
      }
    },
    {
      "type": "Feature",
      "properties": {
        "weight": 1.0,
        "area_sqm": 31.8,
        "radius_m": 3.2
      },
      "geometry": {
        "type": "Point",
        "coordinates": [
          -122.0989061375,
          47.67607155
        ]
      }
    },
    {
      "type": "Feature",
      "properties": {
        "weight": 1.0,
        "area_sqm": 14.4,
        "radius_m": 2.1
      },
      "geometry": {
        "type": "Point",
        "coordinates": [
          -122.09846391666667,
          47.67626001666667
        ]
      }
    },
    {
      "type": "Feature",
      "properties": {
        "weight": 1.0,
        "area_sqm": 24.5,
        "radius_m": 2.8
      },
      "geometry": {
        "type": "Point",
        "coordinates": [
          -122.09827571428572,
          47.67626905714286
        ]
      }
    },
    {
      "type": "Feature",
      "properties": {
        "weight": 1.0,
        "area_sqm": 69.7,
        "radius_m": 4.7
      },
      "geometry": {
        "type": "Point",
        "coordinates": [
          -122.0994947818182,
          47.67618278181818
        ]
      }
    },
    {
      "type": "Feature",
      "properties": {
        "weight": 1.0,
        "area_sqm": 14.6,
        "radius_m": 2.2
      },
      "geometry": {
        "type": "Point",
        "coordinates": [
          -122.09892434000001,
          47.6765709
        ]
      }
    },
    {
      "type": "Feature",
      "properties": {
        "weight": 1.0,
        "area_sqm": 292.9,
        "radius_m": 9.7
      },
      "geometry": {
        "type": "Point",
        "coordinates": [
          -122.0985486875,
          47.67655063125
        ]
      }
    },
    {
      "type": "Feature",
      "properties": {
        "weight": 1.0,
        "area_sqm": 75.9,
        "radius_m": 4.9
      },
      "geometry": {
        "type": "Point",
        "coordinates": [
          -122.09908651999999,
          47.676229
        ]
      }
    },
    {
      "type": "Feature",
      "properties": {
        "weight": 1.0,
        "area_sqm": 1833.5,
        "radius_m": 24.2
      },
      "geometry": {
        "type": "Point",
        "coordinates": [
          -122.07983988125,
          47.67706800625
        ]
      }
    },
    {
      "type": "Feature",
      "properties": {
        "weight": 1.0,
        "area_sqm": 1468.8,
        "radius_m": 21.6
      },
      "geometry": {
        "type": "Point",
        "coordinates": [
          -122.07928376,
          47.67728477
        ]
      }
    },
    {
      "type": "Feature",
      "properties": {
        "weight": 1.0,
        "area_sqm": 993.2,
        "radius_m": 17.8
      },
      "geometry": {
        "type": "Point",
        "coordinates": [
          -122.07922988666665,
          47.676378480000004
        ]
      }
    },
    {
      "type": "Feature",
      "properties": {
        "weight": 1.0,
        "area_sqm": 1523.6,
        "radius_m": 22.0
      },
      "geometry": {
        "type": "Point",
        "coordinates": [
          -122.07988162222222,
          47.67632141666667
        ]
      }
    },
    {
      "type": "Feature",
      "properties": {
        "weight": 1.0,
        "area_sqm": 151.4,
        "radius_m": 6.9
      },
      "geometry": {
        "type": "Point",
        "coordinates": [
          -122.08004008571429,
          47.675917057142854
        ]
      }
    },
    {
      "type": "Feature",
      "properties": {
        "weight": 1.0,
        "area_sqm": 1170.6,
        "radius_m": 19.3
      },
      "geometry": {
        "type": "Point",
        "coordinates": [
          -122.08013955555556,
          47.67721687777778
        ]
      }
    },
    {
      "type": "Feature",
      "properties": {
        "weight": 1.0,
        "area_sqm": 493.1,
        "radius_m": 12.5
      },
      "geometry": {
        "type": "Point",
        "coordinates": [
          -122.07899144666666,
          47.67501274666667
        ]
      }
    },
    {
      "type": "Feature",
      "properties": {
        "weight": 1.0,
        "area_sqm": 371.0,
        "radius_m": 10.9
      },
      "geometry": {
        "type": "Point",
        "coordinates": [
          -122.09789239285715,
          47.6724847
        ]
      }
    },
    {
      "type": "Feature",
      "properties": {
        "weight": 1.0,
        "area_sqm": 35.6,
        "radius_m": 3.4
      },
      "geometry": {
        "type": "Point",
        "coordinates": [
          -122.09828650000001,
          47.67238888888889
        ]
      }
    },
    {
      "type": "Feature",
      "properties": {
        "weight": 1.0,
        "area_sqm": 142.5,
        "radius_m": 6.7
      },
      "geometry": {
        "type": "Point",
        "coordinates": [
          -122.09861023333333,
          47.67239573333333
        ]
      }
    },
    {
      "type": "Feature",
      "properties": {
        "weight": 1.0,
        "area_sqm": 77.9,
        "radius_m": 5.0
      },
      "geometry": {
        "type": "Point",
        "coordinates": [
          -122.09688948333333,
          47.672711308333334
        ]
      }
    },
    {
      "type": "Feature",
      "properties": {
        "weight": 1.0,
        "area_sqm": 95.4,
        "radius_m": 5.5
      },
      "geometry": {
        "type": "Point",
        "coordinates": [
          -122.09682013333334,
          47.673036922222224
        ]
      }
    },
    {
      "type": "Feature",
      "properties": {
        "weight": 1.0,
        "area_sqm": 55.2,
        "radius_m": 4.2
      },
      "geometry": {
        "type": "Point",
        "coordinates": [
          -122.09668037142856,
          47.67319222857143
        ]
      }
    },
    {
      "type": "Feature",
      "properties": {
        "weight": 1.0,
        "area_sqm": 17.6,
        "radius_m": 2.4
      },
      "geometry": {
        "type": "Point",
        "coordinates": [
          -122.09658328333335,
          47.67240691666667
        ]
      }
    },
    {
      "type": "Feature",
      "properties": {
        "weight": 1.0,
        "area_sqm": 37.6,
        "radius_m": 3.5
      },
      "geometry": {
        "type": "Point",
        "coordinates": [
          -122.09657935999999,
          47.67258822
        ]
      }
    },
    {
      "type": "Feature",
      "properties": {
        "weight": 1.0,
        "area_sqm": 32.7,
        "radius_m": 3.2
      },
      "geometry": {
        "type": "Point",
        "coordinates": [
          -122.09740181428572,
          47.672386214285716
        ]
      }
    },
    {
      "type": "Feature",
      "properties": {
        "weight": 1.0,
        "area_sqm": 57.4,
        "radius_m": 4.3
      },
      "geometry": {
        "type": "Point",
        "coordinates": [
          -122.09714555,
          47.672389583333334
        ]
      }
    },
    {
      "type": "Feature",
      "properties": {
        "weight": 1.0,
        "area_sqm": 280.5,
        "radius_m": 9.4
      },
      "geometry": {
        "type": "Point",
        "coordinates": [
          -122.0979791809524,
          47.67223534285714
        ]
      }
    },
    {
      "type": "Feature",
      "properties": {
        "weight": 1.0,
        "area_sqm": 330.1,
        "radius_m": 10.3
      },
      "geometry": {
        "type": "Point",
        "coordinates": [
          -122.09704891818183,
          47.672235572727274
        ]
      }
    },
    {
      "type": "Feature",
      "properties": {
        "weight": 1.0,
        "area_sqm": 74.7,
        "radius_m": 4.9
      },
      "geometry": {
        "type": "Point",
        "coordinates": [
          -122.098984125,
          47.6723895875
        ]
      }
    },
    {
      "type": "Feature",
      "properties": {
        "weight": 1.0,
        "area_sqm": 412.4,
        "radius_m": 11.5
      },
      "geometry": {
        "type": "Point",
        "coordinates": [
          -122.09443643529411,
          47.672269011764705
        ]
      }
    },
    {
      "type": "Feature",
      "properties": {
        "weight": 1.0,
        "area_sqm": 214.8,
        "radius_m": 8.3
      },
      "geometry": {
        "type": "Point",
        "coordinates": [
          -122.0938273125,
          47.6724855375
        ]
      }
    },
    {
      "type": "Feature",
      "properties": {
        "weight": 1.0,
        "area_sqm": 115.9,
        "radius_m": 6.1
      },
      "geometry": {
        "type": "Point",
        "coordinates": [
          -122.0937897,
          47.67266886
        ]
      }
    },
    {
      "type": "Feature",
      "properties": {
        "weight": 1.0,
        "area_sqm": 238.7,
        "radius_m": 8.7
      },
      "geometry": {
        "type": "Point",
        "coordinates": [
          -122.09378575999999,
          47.67290512
        ]
      }
    },
    {
      "type": "Feature",
      "properties": {
        "weight": 1.0,
        "area_sqm": 175.1,
        "radius_m": 7.5
      },
      "geometry": {
        "type": "Point",
        "coordinates": [
          -122.09378133999999,
          47.67320646
        ]
      }
    },
    {
      "type": "Feature",
      "properties": {
        "weight": 1.0,
        "area_sqm": 366.5,
        "radius_m": 10.8
      },
      "geometry": {
        "type": "Point",
        "coordinates": [
          -122.09380259090909,
          47.6737026
        ]
      }
    },
    {
      "type": "Feature",
      "properties": {
        "weight": 1.0,
        "area_sqm": 263.3,
        "radius_m": 9.2
      },
      "geometry": {
        "type": "Point",
        "coordinates": [
          -122.09454124444444,
          47.67382101111111
        ]
      }
    },
    {
      "type": "Feature",
      "properties": {
        "weight": 1.0,
        "area_sqm": 384.3,
        "radius_m": 11.1
      },
      "geometry": {
        "type": "Point",
        "coordinates": [
          -122.09379255000002,
          47.67416996
        ]
      }
    },
    {
      "type": "Feature",
      "properties": {
        "weight": 1.0,
        "area_sqm": 54.7,
        "radius_m": 4.2
      },
      "geometry": {
        "type": "Point",
        "coordinates": [
          -122.0943335,
          47.67432208333333
        ]
      }
    },
    {
      "type": "Feature",
      "properties": {
        "weight": 1.0,
        "area_sqm": 90.3,
        "radius_m": 5.4
      },
      "geometry": {
        "type": "Point",
        "coordinates": [
          -122.09486297999999,
          47.67413968
        ]
      }
    },
    {
      "type": "Feature",
      "properties": {
        "weight": 1.0,
        "area_sqm": 110.6,
        "radius_m": 5.9
      },
      "geometry": {
        "type": "Point",
        "coordinates": [
          -122.09508916666665,
          47.672946849999995
        ]
      }
    },
    {
      "type": "Feature",
      "properties": {
        "weight": 1.0,
        "area_sqm": 70.2,
        "radius_m": 4.7
      },
      "geometry": {
        "type": "Point",
        "coordinates": [
          -122.09508166666667,
          47.67245103333333
        ]
      }
    },
    {
      "type": "Feature",
      "properties": {
        "weight": 1.0,
        "area_sqm": 125.5,
        "radius_m": 6.3
      },
      "geometry": {
        "type": "Point",
        "coordinates": [
          -122.09479489090909,
          47.67244767272727
        ]
      }
    },
    {
      "type": "Feature",
      "properties": {
        "weight": 1.0,
        "area_sqm": 114.6,
        "radius_m": 6.0
      },
      "geometry": {
        "type": "Point",
        "coordinates": [
          -122.09410133333334,
          47.672445474999996
        ]
      }
    },
    {
      "type": "Feature",
      "properties": {
        "weight": 1.0,
        "area_sqm": 434.3,
        "radius_m": 11.8
      },
      "geometry": {
        "type": "Point",
        "coordinates": [
          -122.09549223333335,
          47.67228082222223
        ]
      }
    },
    {
      "type": "Feature",
      "properties": {
        "weight": 1.0,
        "area_sqm": 95.5,
        "radius_m": 5.5
      },
      "geometry": {
        "type": "Point",
        "coordinates": [
          -122.09624591428572,
          47.67223987142857
        ]
      }
    },
    {
      "type": "Feature",
      "properties": {
        "weight": 1.0,
        "area_sqm": 94.2,
        "radius_m": 5.5
      },
      "geometry": {
        "type": "Point",
        "coordinates": [
          -122.0940378375,
          47.6735209625
        ]
      }
    },
    {
      "type": "Feature",
      "properties": {
        "weight": 1.0,
        "area_sqm": 63.0,
        "radius_m": 4.5
      },
      "geometry": {
        "type": "Point",
        "coordinates": [
          -122.09419420769231,
          47.67259183846154
        ]
      }
    },
    {
      "type": "Feature",
      "properties": {
        "weight": 1.0,
        "area_sqm": 13.2,
        "radius_m": 2.1
      },
      "geometry": {
        "type": "Point",
        "coordinates": [
          -122.09549895714285,
          47.672418871428576
        ]
      }
    },
    {
      "type": "Feature",
      "properties": {
        "weight": 1.0,
        "area_sqm": 11.2,
        "radius_m": 1.9
      },
      "geometry": {
        "type": "Point",
        "coordinates": [
          -122.09476262000001,
          47.67259672
        ]
      }
    },
    {
      "type": "Feature",
      "properties": {
        "weight": 1.0,
        "area_sqm": 4.6,
        "radius_m": 1.2
      },
      "geometry": {
        "type": "Point",
        "coordinates": [
          -122.0944335,
          47.67259502
        ]
      }
    },
    {
      "type": "Feature",
      "properties": {
        "weight": 1.0,
        "area_sqm": 232.9,
        "radius_m": 8.6
      },
      "geometry": {
        "type": "Point",
        "coordinates": [
          -122.05008522,
          47.71813914
        ]
      }
    },
    {
      "type": "Feature",
      "properties": {
        "weight": 1.0,
        "area_sqm": 739.4,
        "radius_m": 15.3
      },
      "geometry": {
        "type": "Point",
        "coordinates": [
          -122.13654795882354,
          47.65376315882353
        ]
      }
    },
    {
      "type": "Feature",
      "properties": {
        "weight": 1.0,
        "area_sqm": 494.9,
        "radius_m": 12.6
      },
      "geometry": {
        "type": "Point",
        "coordinates": [
          -122.1338486923077,
          47.64525014615385
        ]
      }
    },
    {
      "type": "Feature",
      "properties": {
        "weight": 1.0,
        "area_sqm": 2070.4,
        "radius_m": 25.7
      },
      "geometry": {
        "type": "Point",
        "coordinates": [
          -122.06087125714285,
          47.71512347142857
        ]
      }
    },
    {
      "type": "Feature",
      "properties": {
        "weight": 1.0,
        "area_sqm": 1089.0,
        "radius_m": 18.6
      },
      "geometry": {
        "type": "Point",
        "coordinates": [
          -122.06103915,
          47.71471091666667
        ]
      }
    },
    {
      "type": "Feature",
      "properties": {
        "weight": 1.0,
        "area_sqm": 320.5,
        "radius_m": 10.1
      },
      "geometry": {
        "type": "Point",
        "coordinates": [
          -122.06175582727273,
          47.71398614545455
        ]
      }
    },
    {
      "type": "Feature",
      "properties": {
        "weight": 1.0,
        "area_sqm": 350.2,
        "radius_m": 10.6
      },
      "geometry": {
        "type": "Point",
        "coordinates": [
          -122.07754784,
          47.7186953
        ]
      }
    },
    {
      "type": "Feature",
      "properties": {
        "weight": 1.0,
        "area_sqm": 326.1,
        "radius_m": 10.2
      },
      "geometry": {
        "type": "Point",
        "coordinates": [
          -122.07806576,
          47.71857936
        ]
      }
    },
    {
      "type": "Feature",
      "properties": {
        "weight": 1.0,
        "area_sqm": 259.9,
        "radius_m": 9.1
      },
      "geometry": {
        "type": "Point",
        "coordinates": [
          -122.0759803,
          47.71789612
        ]
      }
    },
    {
      "type": "Feature",
      "properties": {
        "weight": 1.0,
        "area_sqm": 1293.5,
        "radius_m": 20.3
      },
      "geometry": {
        "type": "Point",
        "coordinates": [
          -122.07764618888889,
          47.719223633333335
        ]
      }
    },
    {
      "type": "Feature",
      "properties": {
        "weight": 1.0,
        "area_sqm": 230.3,
        "radius_m": 8.6
      },
      "geometry": {
        "type": "Point",
        "coordinates": [
          -122.09767669583334,
          47.67706150833333
        ]
      }
    },
    {
      "type": "Feature",
      "properties": {
        "weight": 1.0,
        "area_sqm": 144.9,
        "radius_m": 6.8
      },
      "geometry": {
        "type": "Point",
        "coordinates": [
          -122.097446676,
          47.677159352
        ]
      }
    },
    {
      "type": "Feature",
      "properties": {
        "weight": 1.0,
        "area_sqm": 239.4,
        "radius_m": 8.7
      },
      "geometry": {
        "type": "Point",
        "coordinates": [
          -122.09525780000001,
          47.677523986842104
        ]
      }
    },
    {
      "type": "Feature",
      "properties": {
        "weight": 1.0,
        "area_sqm": 213.4,
        "radius_m": 8.2
      },
      "geometry": {
        "type": "Point",
        "coordinates": [
          -122.09529233023255,
          47.677344188372096
        ]
      }
    },
    {
      "type": "Feature",
      "properties": {
        "weight": 1.0,
        "area_sqm": 85.8,
        "radius_m": 5.2
      },
      "geometry": {
        "type": "Point",
        "coordinates": [
          -122.09551508,
          47.677140386666665
        ]
      }
    },
    {
      "type": "Feature",
      "properties": {
        "weight": 1.0,
        "area_sqm": 139.4,
        "radius_m": 6.7
      },