{
  "type": "FeatureCollection",
  "features": [
    {
      "type": "Feature",
      "properties": {
        "weight": 1.0,
        "id": 241854989,
        "hasDetails": true,
        "name": "Velox Sport",
        "opening_hours": "Mo-Fr 09:30-12:00,13:00-18:00; Sa-Su,PH off"
      },
      "geometry": {
        "type": "Point",
        "coordinates": [
          14.4330331,
          50.0978596
        ]
      }
    },
    {
      "type": "Feature",
      "properties": {
        "weight": 1.0,
        "id": 282762022,
        "hasDetails": true,
        "name": "Billa",
        "address": "Vodi\u010dkova 710/31, Praha",
        "website": "https://www.billa.cz/",
        "opening_hours": "Mo-Sa 07:00-22:00; Su 08:00-22:00"
      },
      "geometry": {
        "type": "Point",
        "coordinates": [
          14.4242624,
          50.0811105
        ]
      }
    },
    {
      "type": "Feature",
      "properties": {
        "weight": 1.0,
        "id": 282971182,
        "hasDetails": true,
        "name": "Academia",
        "address": "V\u00e1clavsk\u00e9 n\u00e1m\u011bst\u00ed 34, Praha",
        "website": "https://www.academia.cz/",
        "opening_hours": "Mo-Fr 08:30-20:00; Sa 09:30-19:00; Su 09:30-18:00"
      },
      "geometry": {
        "type": "Point",
        "coordinates": [
          14.4259542,
          50.0819703
        ]
      }
    },
    {
      "type": "Feature",
      "properties": {
        "weight": 1.0,
        "id": 282972129,
        "hasDetails": true,
        "name": "Desirred",
        "address": "V\u00e1clavsk\u00e9 n\u00e1m\u011bst\u00ed 831/21, Praha",
        "website": "https://www.desirred.com/cs/"
      },
      "geometry": {
        "type": "Point",
        "coordinates": [
          14.4268211,
          50.0825337
        ]
      }
    },
    {
      "type": "Feature",
      "properties": {
        "weight": 1.0
      },
      "geometry": {
        "type": "Point",
        "coordinates": [
          14.4340173,
          50.089534
        ]
      }
    },
    {
      "type": "Feature",
      "properties": {
        "weight": 1.0,
        "id": 292178545,
        "hasDetails": true,
        "name": "The Gallery",
        "address": "Havl\u00ed\u010dkova 15, Praha",
        "opening_hours": "Mo-Su 09:00-22:00"
      },
      "geometry": {
        "type": "Point",
        "coordinates": [
          14.4322317,
          50.0893256
        ]
      }
    },
    {
      "type": "Feature",
      "properties": {
        "weight": 1.0
      },
      "geometry": {
        "type": "Point",
        "coordinates": [
          14.4183022,
          50.0835287
        ]
      }
    },
    {
      "type": "Feature",
      "properties": {
        "weight": 1.0,
        "id": 296462326,
        "hasDetails": true,
        "name": "ProV\u00e1s",
        "address": "Rybn\u00e1 695/21"
      },
      "geometry": {
        "type": "Point",
        "coordinates": [
          14.4257992,
          50.0900324
        ]
      }
    },
    {
      "type": "Feature",
      "properties": {
        "weight": 1.0,
        "id": 296469708,
        "hasDetails": true,
        "name": "Bezlepkov\u00e1 Pek\u00e1rna",
        "address": "Hradebn\u00ed 1044/14",
        "website": "https://babiccinaspiz.cz/",
        "opening_hours": "Tu, Th-Fr 07:30-18:00; Mo, We 07:30-20:00; Sa 10:00-18:00; Su 10:00-16:00"
      },
      "geometry": {
        "type": "Point",
        "coordinates": [
          14.4270001,
          50.0919761
        ]
      }
    },
    {
      "type": "Feature",
      "properties": {
        "weight": 1.0,
        "id": 296482466,
        "hasDetails": true,
        "name": "Vinoshop",
        "address": "Senov\u00e1\u017en\u00e9 n\u00e1m\u011bst\u00ed 1464/6, Praha 1",
        "website": "https://www.vinograf.cz/cs/content/26-vinoshop"
      },
      "geometry": {
        "type": "Point",
        "coordinates": [
          14.4310234,
          50.0860246
        ]
      }
    },
    {
      "type": "Feature",
      "properties": {
        "weight": 1.0,
        "id": 296489832,
        "hasDetails": true,
        "name": "Nike",
        "address": "Na p\u0159\u00edkop\u011b 859/22",
        "opening_hours": "Mo-Su 10:00-20:00"
      },
      "geometry": {
        "type": "Point",
        "coordinates": [
          14.4273617,
          50.0864121
        ]
      }
    },
    {
      "type": "Feature",
      "properties": {
        "weight": 1.0,
        "id": 296498091,
        "hasDetails": true,
        "name": "Zara",
        "address": "Na p\u0159\u00edkop\u011b 583/15",
        "website": "https://www.zara.com/",
        "opening_hours": "Mo-Sa 10:00-21:00; Su 11:00-20:00",
        "names": [
          "Zara",
          "Swarovski",
          "Calzedonia"
        ]
      },
      "geometry": {
        "type": "Point",
        "coordinates": [
          14.424819,
          50.0853219
        ]
      }
    },
    {
      "type": "Feature",
      "properties": {
        "weight": 1.0,
        "id": 296499378,
        "hasDetails": true,
        "name": "Obuv \u0160otek",
        "address": "Dlouh\u00e1 708/24",
        "website": "https://www.obuvsotek.cz"
      },
      "geometry": {
        "type": "Point",
        "coordinates": [
          14.4241623,
          50.0899382
        ]
      }
    },
    {
      "type": "Feature",
      "properties": {
        "weight": 1.0,
        "id": 296540376,
        "hasDetails": true,
        "name": "Queens",
        "address": "28. \u0159\u00edjna 373/7",
        "opening_hours": "Mo-Su 11:00-20:00"
      },
      "geometry": {
        "type": "Point",
        "coordinates": [
          14.4223559,
          50.0836012
        ]
      }
    },
    {
      "type": "Feature",
      "properties": {
        "weight": 1.0,
        "id": 296571275,
        "hasDetails": true,
        "name": "HardDeCore",
        "address": "Senov\u00e1\u017en\u00e9 n\u00e1m\u011bst\u00ed 2088/10a"
      },
      "geometry": {
        "type": "Point",
        "coordinates": [
          14.4326546,
          50.0861777
        ]
      }
    },
    {
      "type": "Feature",
      "properties": {
        "weight": 1.0,
        "id": 296583215,
        "hasDetails": true,
        "name": "Wayfarer",
        "address": "Dl\u00e1\u017ed\u011bn\u00e1 1003/7",
        "website": "https://www.wayfarer.cz/",
        "opening_hours": "Mo-Su 10:00-18:00"
      },
      "geometry": {
        "type": "Point",
        "coordinates": [
          14.4320981,
          50.0869998
        ]
      }
    },
    {
      "type": "Feature",
      "properties": {
        "weight": 1.0,
        "id": 296584316,
        "hasDetails": true,
        "name": "Hra\u010dky U Zlat\u00e9ho Iva",
        "address": "Celetn\u00e1 568/32",
        "opening_hours": "Mo-Su 09:00-20:00"
      },
      "geometry": {
        "type": "Point",
        "coordinates": [
          14.4252652,
          50.0870908
        ]
      }
    },
    {
      "type": "Feature",
      "properties": {
        "weight": 1.0,
        "id": 296586650,
        "hasDetails": true,
        "name": "Flying Tiger Copenhagen",
        "address": "V\u00e1clavsk\u00e9 n\u00e1m\u011bst\u00ed 835/13",
        "website": "https://cz.flyingtiger.com/",
        "opening_hours": "Mo-Su 09:00-21:00",
        "names": [
          "Flying Tiger Copenhagen",
          "Gate"
        ]
      },
      "geometry": {
        "type": "Point",
        "coordinates": [
          14.4254455,
          50.0832339
        ]
      }
    },
    {
      "type": "Feature",
      "properties": {
        "weight": 1.0,
        "id": 296595877,
        "hasDetails": true,
        "name": "Country Life",
        "address": "Melantrichova 463/15, Praha",
        "website": "https://www.countrylife.cz/prodejna-country-life-melantrichova",
        "opening_hours": "Mo-Th 07:00-18:00; Fr 07:00-16:30; Su 11:00-18:00"
      },
      "geometry": {
        "type": "Point",
        "coordinates": [
          14.4205187,
          50.0856947
        ]
      }
    },
    {
      "type": "Feature",
      "properties": {
        "weight": 1.0,
        "id": 296596693,
        "hasDetails": true,
        "name": "Deichmann",
        "address": "Na p\u0159\u00edkop\u011b 392/9",
        "opening_hours": "Mo-Su 10:00-20:00"
      },
      "geometry": {
        "type": "Point",
        "coordinates": [
          14.4241566,
          50.084878
        ]
      }
    },
    {
      "type": "Feature",
      "properties": {
        "weight": 1.0,
        "id": 296604607,
        "hasDetails": true,
        "name": "ProfiZlata",
        "opening_hours": "Sa 10:00-18:00; Mo-Fr 09:00-19:00"
      },
      "geometry": {
        "type": "Point",
        "coordinates": [
          14.4195173,
          50.0797051
        ]
      }
    },
    {
      "type": "Feature",
      "properties": {
        "weight": 1.0,
        "id": 296605798,
        "hasDetails": true,
        "name": "Svatebn\u00ed d\u016fm NUANCE",
        "address": "N\u00e1rodn\u00ed 341/23, Praha",
        "website": "https://www.nuance.cz/",
        "opening_hours": "Mo-Fr 10:00-19:00; Sa 10:00-18:00"
      },
      "geometry": {
        "type": "Point",
        "coordinates": [
          14.4177791,
          50.0822155
        ]
      }
    },
    {
      "type": "Feature",
      "properties": {
        "weight": 1.0,
        "id": 296632503,
        "hasDetails": true,
        "name": "Shakespeare & Synov\u00e9",
        "address": "U Lu\u017eick\u00e9ho semin\u00e1\u0159e 91/10",
        "website": "https://www.shakes.cz/",
        "opening_hours": "Mo-Su 10:00-19:00",
        "names": [
          "Shakespeare & Synov\u00e9",
          "Galerie Peron"
        ]
      },
      "geometry": {
        "type": "Point",
        "coordinates": [
          14.4086792,
          50.08754
        ]
      }
    },
    {
      "type": "Feature",
      "properties": {
        "weight": 1.0,
        "id": 296651091,
        "hasDetails": true,
        "name": "Bakeshop",
        "address": "U Lu\u017eick\u00e9ho semin\u00e1\u0159e 99/22",
        "website": "https://bakeshop.cz/",
        "opening_hours": "Mo-Su 09:00-19:00"
      },
      "geometry": {
        "type": "Point",
        "coordinates": [
          14.4093633,
          50.0878366
        ]
      }
    },
    {
      "type": "Feature",
      "properties": {
        "weight": 1.0,
        "id": 296676189,
        "hasDetails": true,
        "name": "Praha Thrift Store",
        "address": "Dukelsk\u00fdch hrdin\u016f 359/21, Praha 7",
        "website": "https://thriftshop.cz/",
        "opening_hours": "Mo-Fr 10:00-19:00; Sa-Su 10:30-16:00"
      },
      "geometry": {
        "type": "Point",
        "coordinates": [
          14.4330017,
          50.0980885
        ]
      }
    },
    {
      "type": "Feature",
      "properties": {
        "weight": 1.0,
        "id": 296682837,
        "hasDetails": true,
        "name": "Marc O'Polo",
        "address": "V\u00e1clavsk\u00e9 n\u00e1m\u011bst\u00ed 777/12",
        "opening_hours": "Mo-Su 10:00-20:00",
        "names": [
          "Marc O'Polo",
          "Rolex"
        ]
      },
      "geometry": {
        "type": "Point",
        "coordinates": [
          14.4242911,
          50.0833379
        ]
      }
    },
    {
      "type": "Feature",
      "properties": {
        "weight": 1.0,
        "id": 296690608,
        "hasDetails": true,
        "name": "Thai orchids parados masajes",
        "address": "Jind\u0159i\u0161sk\u00e1 901/5"
      },
      "geometry": {
        "type": "Point",
        "coordinates": [
          14.4270296,
          50.0831934
        ]
      }
    },
    {
      "type": "Feature",
      "properties": {
        "weight": 1.0,
        "id": 296733604,
        "hasDetails": true,
        "name": "Ticho p\u0159ed bou\u0159\u00ed",
        "amenity": "cafe",
        "address": "Milady Hor\u00e1kov\u00e9 817/48",
        "names": [
          "Ticho p\u0159ed bou\u0159\u00ed",
          "U Modr\u00e9ho slona"
        ]
      },
      "geometry": {
        "type": "Point",
        "coordinates": [
          14.4263902,
          50.100041
        ]
      }
    },
    {
      "type": "Feature",
      "properties": {
        "weight": 1.0,
        "id": 296738331,
        "hasDetails": true,
        "name": "Shin Food",
        "cuisine": "korean",
        "address": "V Celnici 1031/4",
        "website": "https://shinfood.com/",
        "opening_hours": "Mo-Sa 10:30-20:30"
      },
      "geometry": {
        "type": "Point",
        "coordinates": [
          14.4303315,
          50.0881556
        ]
      }
    },
    {
      "type": "Feature",
      "properties": {
        "weight": 1.0,
        "id": 296750191,
        "hasDetails": true,
        "name": "Cruz Panaderia",
        "address": "Milady Hor\u00e1kov\u00e9 141/70",
        "opening_hours": "Mo-Su 08:00-19:00"
      },
      "geometry": {
        "type": "Point",
        "coordinates": [
          14.4218167,
          50.1000433
        ]
      }
    },
    {
      "type": "Feature",
      "properties": {
        "weight": 1.0,
        "id": 296757708,
        "hasDetails": true,
        "name": "JUN",
        "address": "Ha\u0161kova 629/7, Praha 7",
        "website": "http://www.junshop.cz/",
        "opening_hours": "Mo-Fr 10:00-18:00; Sa 09:00-12:00"
      },
      "geometry": {
        "type": "Point",
        "coordinates": [
          14.4281053,
          50.1002693
        ]
      }
    },
    {
      "type": "Feature",
      "properties": {
        "weight": 1.0,
        "id": 296759727,
        "hasDetails": true,
        "name": "Zlatnick\u00e9 Polotovary",
        "address": "Ha\u0161talsk\u00e1 939/8"
      },
      "geometry": {
        "type": "Point",
        "coordinates": [
          14.4239931,
          50.0908143
        ]
      }
    },
    {
      "type": "Feature",
      "properties": {
        "weight": 1.0,
        "id": 296767083,
        "hasDetails": true,
        "name": "DV.nails.studio",
        "address": "Kamenick\u00e1 552/23, Praha 7",
        "opening_hours": "Mo-Fr 09:00-20:00; Sa,Su 10:00-18:30"
      },
      "geometry": {
        "type": "Point",
        "coordinates": [
          14.4274015,
          50.0995469
        ]
      }
    },
    {
      "type": "Feature",
      "properties": {
        "weight": 1.0
      },
      "geometry": {
        "type": "Point",
        "coordinates": [
          14.4283255,
          50.0995844
        ]
      }
    },
    {
      "type": "Feature",
      "properties": {
        "weight": 1.0,
        "id": 305304114,
        "hasDetails": true,
        "name": "Sl\u00e1vka Kr\u00e1tka",
        "website": "https://www.slavkakratka.com",
        "opening_hours": "Mo-Fr 11:30-18:30; Sa 11:00-16:00",
        "names": [
          "Sl\u00e1vka Kr\u00e1tka",
          "Hodin\u00e1\u0159stv\u00ed & Zlatnictv\u00ed"
        ]
      },
      "geometry": {
        "type": "Point",
        "coordinates": [
          14.4225623,
          50.0810973
        ]
      }
    },
    {
      "type": "Feature",
      "properties": {
        "weight": 1.0,
        "id": 305774153,
        "hasDetails": true,
        "name": "M&S Outlet",
        "address": "V\u00e1clavsk\u00e9 n\u00e1m\u011bst\u00ed 793/36, Praha",
        "opening_hours": "Mo-Fr 09:00-20:30; Sa 09:30-20:00; Su 10:00-20:00"
      },
      "geometry": {
        "type": "Point",
        "coordinates": [
          14.4261789,
          50.0818069
        ]
      }
    },
    {
      "type": "Feature",
      "properties": {
        "weight": 1.0
      },
      "geometry": {
        "type": "Point",
        "coordinates": [
          14.4266137,
          50.0822917
        ]
      }
    },
    {
      "type": "Feature",
      "properties": {
        "weight": 1.0,
        "id": 306360429,
        "hasDetails": true,
        "name": "Academia",
        "website": "https://www.academia.cz/",
        "opening_hours": "Mo-Fr 10:00-18:00"
      },
      "geometry": {
        "type": "Point",
        "coordinates": [
          14.4153125,
          50.0816083
        ]
      }
    },
    {
      "type": "Feature",
      "properties": {
        "weight": 1.0
      },
      "geometry": {
        "type": "Point",
        "coordinates": [
          14.4213359,
          50.082179
        ]
      }
    },
    {
      "type": "Feature",
      "properties": {
        "weight": 1.0
      },
      "geometry": {
        "type": "Point",
        "coordinates": [
          14.425393,
          50.0818464
        ]
      }
    },
    {
      "type": "Feature",
      "properties": {
        "weight": 1.0,
        "id": 309297812,
        "hasDetails": true,
        "address": "Dukelsk\u00fdch hrdin\u016f 10, Praha 7"
      },
      "geometry": {
        "type": "Point",
        "coordinates": [
          14.4335303,
          50.0985182
        ]
      }
    },
    {
      "type": "Feature",
      "properties": {
        "weight": 1.0,
        "id": 314789609,
        "hasDetails": true,
        "name": "Hras",
        "opening_hours": "Mo-Fr 10:00-19:00; Sa,Su 12:00-17:00"
      },
      "geometry": {
        "type": "Point",
        "coordinates": [
          14.426163,
          50.0814272
        ]
      }
    },
    {
      "type": "Feature",
      "properties": {
        "weight": 1.0,
        "id": 317919206,
        "hasDetails": true,
        "name": "dm",
        "opening_hours": "Mo-Fr 08:00-20:00; Sa,Su 08:00-19:00"
      },
      "geometry": {
        "type": "Point",
        "coordinates": [
          14.4342102,
          50.0990349
        ]
      }
    },
    {
      "type": "Feature",
      "properties": {
        "weight": 1.0,
        "id": 331223011,
        "hasDetails": true,
        "name": "Belles Fleurs",
        "address": "Jind\u0159i\u0161sk\u00e1 2, Praha",
        "opening_hours": "Mo-Su 07:00-21:00"
      },
      "geometry": {
        "type": "Point",
        "coordinates": [
          14.4268582,
          50.0827347
        ]
      }
    },
    {
      "type": "Feature",
      "properties": {
        "weight": 1.0,
        "id": 331241972,
        "hasDetails": true,
        "name": "Port\u00e1l",
        "address": "Jind\u0159i\u0161sk\u00e1 973/30, Praha",
        "website": "https://www.portal.cz/",
        "opening_hours": "Mo-Fr 09:00-18:00"
      },
      "geometry": {
        "type": "Point",
        "coordinates": [
          14.4297351,
          50.0847244
        ]
      }
    },
    {
      "type": "Feature",
      "properties": {
        "weight": 1.0,
        "id": 334349273,
        "hasDetails": true,
        "name": "Tenzis",
        "address": "V\u00e1clavsk\u00e9 n\u00e1m\u011bst\u00ed 43, Praha",
        "opening_hours": "Mo-Su 09:30-20:30",
        "names": [
          "Tenzis",
          "Gold Point"
        ]
      },
      "geometry": {
        "type": "Point",
        "coordinates": [
          14.4282239,
          50.081309
        ]
      }
    },
    {
      "type": "Feature",
      "properties": {
        "weight": 1.0,
        "id": 335699964,
        "hasDetails": true,
        "name": "Relay",
        "opening_hours": "Mo-Su 06:00-23:00",
        "names": [
          "Relay",
          "Zlatnictv\u00ed"
        ]
      },
      "geometry": {
        "type": "Point",
        "coordinates": [
          14.4194882,
          50.0811491
        ]
      }
    },
    {
      "type": "Feature",
      "properties": {
        "weight": 1.0,
        "id": 335699966,
        "hasDetails": true,
        "name": "Kv\u011btiny Avalanche",
        "address": "Sp\u00e1len\u00e1 106/47, Praha",
        "website": "https://www.kvetiny-avalanche.cz/",
        "opening_hours": "Mo-Fr 08:00-20:00; Sa, Su 10:00-19:00",
        "names": [
          "Kv\u011btiny Avalanche",
          "Minit"
        ]
      },
      "geometry": {
        "type": "Point",
        "coordinates": [
          14.4193818,
          50.0814581
        ]
      }
    },
    {
      "type": "Feature",
      "properties": {
        "weight": 1.0,
        "id": 335700129,
        "hasDetails": true,
        "name": "Lah\u016fdky",
        "opening_hours": "Mo-Fr 08:00-20:00; Sa, Su 10:00-18:00"
      },
      "geometry": {
        "type": "Point",
        "coordinates": [
          14.4199029,
          50.0808432
        ]
      }
    },
    {
      "type": "Feature",
      "properties": {
        "weight": 1.0,
        "id": 335700201,
        "hasDetails": true,
        "name": "McPen",
        "address": "Lazarsk\u00e1 15/7, Praha",
        "website": "https://www.mcpen.cz/",
        "opening_hours": "Mo-Fr 07:30-18:30"
      },
      "geometry": {
        "type": "Point",
        "coordinates": [
          14.4212684,
          50.0792515
        ]
      }
    },
    {
      "type": "Feature",
      "properties": {
        "weight": 1.0,
        "id": 338507449,
        "hasDetails": true,
        "name": "HUDYsport",
        "address": "Strossmayerovo n\u00e1m\u011bst\u00ed 965/10, Praha",
        "website": "https://www.hudy.cz/",
        "opening_hours": "Mo-Fr 10:00-18:30; Sa 10:00-13:00"
      },
      "geometry": {
        "type": "Point",
        "coordinates": [
          14.4339918,
          50.0986233
        ]
      }
    },
    {
      "type": "Feature",
      "properties": {
        "weight": 1.0
      },
      "geometry": {
        "type": "Point",
        "coordinates": [
          14.4166407,
          50.0815057
        ]
      }
    },
    {
      "type": "Feature",
      "properties": {
        "weight": 1.0,
        "id": 338836406,
        "hasDetails": true,
        "address": "Jind\u0159i\u0161sk\u00e1 875/23, Praha"
      },
      "geometry": {
        "type": "Point",
        "coordinates": [
          14.4291181,
          50.0846253
        ]
      }
    },
    {
      "type": "Feature",
      "properties": {
        "weight": 1.0,
        "id": 340024420,
        "hasDetails": true,
        "name": "Q Obuv",
        "address": "Lazarsk\u00e1 15/7, Praha",
        "website": "http://www.qobuv.cz/",
        "opening_hours": "Mo-Fr 09:00-19:00"
      },
      "geometry": {
        "type": "Point",
        "coordinates": [
          14.4219528,
          50.0792761
        ]
      }
    },
    {
      "type": "Feature",
      "properties": {
        "weight": 1.0,
        "id": 340024533,
        "hasDetails": true,
        "name": "Libe\u0159sk\u00e9 lah\u016fdky",
        "opening_hours": "Mo-Fr 06:30-19:00; Sa 08:00-18:00",
        "names": [
          "Libe\u0159sk\u00e9 lah\u016fdky",
          "Krusta"
        ]
      },
      "geometry": {
        "type": "Point",
        "coordinates": [
          14.4227327,
          50.079723
        ]
      }
    },
    {
      "type": "Feature",
      "properties": {
        "weight": 1.0,
        "id": 340039063,
        "hasDetails": true,
        "name": "Dreams",
        "address": "Sp\u00e1len\u00e1 33, Praha",
        "names": [
          "Dreams",
          "La Azzetta"
        ]
      },
      "geometry": {
        "type": "Point",
        "coordinates": [
          14.4195702,
          50.0806911
        ]
      }
    },
    {
      "type": "Feature",
      "properties": {
        "weight": 1.0,
        "id": 340103438,
        "hasDetails": true,
        "opening_hours": "Mo-Fr 08:00-16:00"
      },
      "geometry": {
        "type": "Point",
        "coordinates": [
          14.4138618,
          50.0815371
        ]
      }
    },
    {
      "type": "Feature",
      "properties": {
        "weight": 1.0
      },
      "geometry": {
        "type": "Point",
        "coordinates": [
          14.4329887,
          50.0982923
        ]
      }
    },
    {
      "type": "Feature",
      "properties": {
        "weight": 1.0,
        "id": 343683281,
        "hasDetails": true,
        "name": "Luka Garden",
        "opening_hours": "Mo-Fr 09:00-17:00",
        "names": [
          "Luka Garden",
          "Sv\u011bt Bi\u017euterie",
          "Drahokam Shop"
        ]
      },
      "geometry": {
        "type": "Point",
        "coordinates": [
          14.4230311,
          50.0820834
        ]
      }
    },
    {
      "type": "Feature",
      "properties": {
        "weight": 1.0,
        "id": 344545235,
        "hasDetails": true,
        "address": "\u0160t\u011bp\u00e1nsk\u00e1 63, Praha"
      },
      "geometry": {
        "type": "Point",
        "coordinates": [
          14.4264762,
          50.0810603
        ]
      }
    },
    {
      "type": "Feature",
      "properties": {
        "weight": 1.0
      },
      "geometry": {
        "type": "Point",
        "coordinates": [
          14.4280351,
          50.0905319
        ]
      }
    },
    {
      "type": "Feature",
      "properties": {
        "weight": 1.0,
        "id": 361241024,
        "hasDetails": true,
        "name": "dm",
        "opening_hours": "Mo-Fr 07:30-20:00; Sa,Su 08:00-20:00"
      },
      "geometry": {
        "type": "Point",
        "coordinates": [
          14.4272422,
          50.0833654
        ]
      }
    },
    {
      "type": "Feature",
      "properties": {
        "weight": 1.0,
        "id": 366264326,
        "hasDetails": true,
        "name": "Pal\u00e1c knih Luxor",
        "address": "V\u00e1clavsk\u00e9 n\u00e1m\u011bst\u00ed 41, Praha",
        "website": "http://neoluxor.cz/pobocky/praha/palac-knih-luxor/",
        "opening_hours": "Mo-Fr 08:00-20:00; Sa 09:00-19:00; Su 10:00-19:00"
      },
      "geometry": {
        "type": "Point",
        "coordinates": [
          14.4280592,
          50.081421
        ]
      }
    },
    {
      "type": "Feature",
      "properties": {
        "weight": 1.0,
        "id": 366277849,
        "hasDetails": true,
        "name": "Ba\u0165a",
        "address": "V\u00e1clavsk\u00e9 n\u00e1m\u011bst\u00ed 6, Praha",
        "website": "https://www.bata.cz/",
        "opening_hours": "Mo-Su 10:00-20:00"
      },
      "geometry": {
        "type": "Point",
        "coordinates": [
          14.42384,
          50.0836313
        ]
      }
    },
    {
      "type": "Feature",
      "properties": {
        "weight": 1.0,
        "id": 366279299,
        "hasDetails": true,
        "name": "Datart",
        "address": "N\u00e1rodn\u00ed 28, Praha"
      },
      "geometry": {
        "type": "Point",
        "coordinates": [
          14.4201934,
          50.0824558
        ]
      }
    },
    {
      "type": "Feature",
      "properties": {
        "weight": 1.0,
        "id": 457719602,
        "hasDetails": true,
        "name": "dm",
        "opening_hours": "Mo-Fr 07:30-20:00; Sa,Su 08:00-20:00"
      },
      "geometry": {
        "type": "Point",
        "coordinates": [
          14.4244521,
          50.0807442
        ]
      }
    },
    {
      "type": "Feature",
      "properties": {
        "weight": 1.0
      },
      "geometry": {
        "type": "Point",
        "coordinates": [
          14.4198346,
          50.0864364
        ]
      }
    },
    {
      "type": "Feature",
      "properties": {
        "weight": 1.0,
        "id": 472664694,
        "hasDetails": true,
        "name": "\u017dabka",
        "address": "Maiselova 8, Praha",
        "opening_hours": "Mo-Su 06:00-23:00; PH off"
      },
      "geometry": {
        "type": "Point",
        "coordinates": [
          14.4187429,
          50.0884828
        ]
      }
    },
    {
      "type": "Feature",
      "properties": {
        "weight": 1.0,
        "id": 473226959,
        "hasDetails": true,
        "name": "Kosmas",
        "address": "Perlov\u00e1 370/3, Praha",
        "website": "https://www.kosmas.cz/",
        "opening_hours": "Mo-Fr 09:00-19:00; Sa 10:00-16:00"
      },
      "geometry": {
        "type": "Point",
        "coordinates": [
          14.4215525,
          50.0834548
        ]
      }
    },
    {
      "type": "Feature",
      "properties": {
        "weight": 1.0
      },
      "geometry": {
        "type": "Point",
        "coordinates": [
          14.4334709,
          50.0980217
        ]
      }
    },
    {
      "type": "Feature",
      "properties": {
        "weight": 1.0,
        "id": 524536490,
        "hasDetails": true,
        "name": "McPen",
        "address": "Dukelsk\u00fdch hrdin\u016f 694/39, Praha",
        "website": "https://www.mcpen.cz/",
        "opening_hours": "Mo-Fr 07:30-18:00; Sa 09:00-12:00"
      },
      "geometry": {
        "type": "Point",
        "coordinates": [
          14.433141,
          50.0998521
        ]
      }
    },
    {
      "type": "Feature",
      "properties": {
        "weight": 1.0
      },
      "geometry": {
        "type": "Point",
        "coordinates": [
          14.4140365,
          50.0841268
        ]
      }
    },
    {
      "type": "Feature",
      "properties": {
        "weight": 1.0
      },
      "geometry": {
        "type": "Point",
        "coordinates": [
          14.4164843,
          50.0853227
        ]
      }
    },
    {
      "type": "Feature",
      "properties": {
        "weight": 1.0
      },
      "geometry": {
        "type": "Point",
        "coordinates": [
          14.4143533,
          50.0838683
        ]
      }
    },
    {
      "type": "Feature",
      "properties": {
        "weight": 1.0,
        "id": 529132087,
        "hasDetails": true,
        "name": "Relay",
        "opening_hours": "Mo-Sa 06:00-21:00; Su 07:00-21:00"
      },
      "geometry": {
        "type": "Point",
        "coordinates": [
          14.4286045,
          50.0881226
        ]
      }
    },
    {
      "type": "Feature",
      "properties": {
        "weight": 1.0
      },
      "geometry": {
        "type": "Point",
        "coordinates": [
          14.4149606,
          50.0823309
        ]
      }
    },
    {
      "type": "Feature",
      "properties": {
        "weight": 1.0,
        "id": 552445178,
        "hasDetails": true,
        "name": "Pap\u00edrnictv\u00ed, d\u00e1rky, drogerie",
        "opening_hours": "Mo-Th 09:00-18:00; Fr 09:00-16:00"
      },
      "geometry": {
        "type": "Point",
        "coordinates": [
          14.4165657,
          50.0875854
        ]
      }
    },
    {
      "type": "Feature",
      "properties": {
        "weight": 1.0,
        "id": 635626130,
        "hasDetails": true,
        "name": "Eden Garden",
        "opening_hours": "Mo-Su 10:00-22:00"
      },
      "geometry": {
        "type": "Point",
        "coordinates": [
          14.4302164,
          50.0887769
        ]
      }
    },
    {
      "type": "Feature",
      "properties": {
        "weight": 1.0,
        "id": 669212049,
        "hasDetails": true,
        "name": "Letensk\u00e1 drogerie",
        "opening_hours": "Mo-Fr 08:00-12:00,13:00-18:00; Sa 08:00-12:00"
      },
      "geometry": {
        "type": "Point",
        "coordinates": [
          14.4221239,
          50.0997197
        ]
      }
    },
    {
      "type": "Feature",
      "properties": {
        "weight": 1.0,
        "id": 669212051,
        "hasDetails": true,
        "name": "Zelenkov\u00e1",
        "address": "Milady Hor\u00e1kov\u00e9 382/75, Praha",
        "website": "http://papirnictvizelenkova.cz/",
        "opening_hours": "Jul-Aug,Sep-Jun Mo-Fr 08:00-18:30; Sep-Jun Sa 09:00-12:00",
        "names": [
          "Zelenkov\u00e1",
          "more than nuts",
          "Kv\u011btin\u00e1\u0159stv\u00ed"
        ]
      },
      "geometry": {
        "type": "Point",
        "coordinates": [
          14.4234732,
          50.0998618
        ]
      }
    },
    {
      "type": "Feature",
      "properties": {
        "weight": 1.0,
        "id": 669212052,
        "hasDetails": true,
        "name": "Pekarna Kabat",
        "address": "Milady Hor\u00e1kov\u00e9 611/73, Praha",
        "website": "https://www.pekarnakabat.cz/",
        "opening_hours": "Mo-Fr 06:00-20:00",
        "names": [
          "Pekarna Kabat",
          "Zdrav\u00e1 obuv Friedrichovi"
        ]
      },
      "geometry": {
        "type": "Point",
        "coordinates": [
          14.4237134,
          50.0998892
        ]
      }
    },
    {
      "type": "Feature",
      "properties": {
        "weight": 1.0,
        "id": 669212053,
        "hasDetails": true,
        "name": "Rossmann",
        "address": "Milady Hor\u00e1kov\u00e9 62",
        "website": "https://www.rossmann.cz/",
        "names": [
          "Rossmann",
          "dm",
          "La Formaggeria Gran Moravia"
        ]
      },
      "geometry": {
        "type": "Point",
        "coordinates": [
          14.4249187,
          50.100123
        ]
      }
    },
    {
      "type": "Feature",
      "properties": {
        "weight": 1.0,
        "id": 669212064,
        "hasDetails": true,
        "name": "\u017babka",
        "address": "Milady Hor\u00e1kov\u00e9 806/29, Praha",
        "opening_hours": "Mo-Su 06:00-23:00; PH off",
        "names": [
          "\u017babka",
          "Optika Letn\u00e1"
        ]
      },
      "geometry": {
        "type": "Point",
        "coordinates": [
          14.4290363,
          50.099466
        ]
      }
    },
    {
      "type": "Feature",
      "properties": {
        "weight": 1.0,
        "id": 669212372,
        "hasDetails": true,
        "name": "FOKUS optik",
        "address": "Milady Hor\u00e1kov\u00e9 451/13, Praha",
        "website": "https://fokusoptik.cz/"
      },
      "geometry": {
        "type": "Point",
        "coordinates": [
          14.4311668,
          50.0991441
        ]
      }
    },
    {
      "type": "Feature",
      "properties": {
        "weight": 1.0
      },
      "geometry": {
        "type": "Point",
        "coordinates": [
          14.4248861,
          50.0814339
        ]
      }
    },
    {
      "type": "Feature",
      "properties": {
        "weight": 1.0
      },
      "geometry": {
        "type": "Point",
        "coordinates": [
          14.423635,
          50.0807995
        ]
      }
    },
    {
      "type": "Feature",
      "properties": {
        "weight": 1.0,
        "id": 679184085,
        "hasDetails": true,
        "name": "Litex",
        "address": "Milady Hor\u00e1kov\u00e9 854/78, Praha",
        "website": "https://www.litex.cz/",
        "names": [
          "Litex",
          "Studio 76"
        ]
      },
      "geometry": {
        "type": "Point",
        "coordinates": [
          14.4200646,
          50.0997519
        ]
      }
    },
    {
      "type": "Feature",
      "properties": {
        "weight": 1.0,
        "id": 679185330,
        "hasDetails": true,
        "name": "Vuch",
        "address": "N\u00e1rodn\u00ed 37/38, Praha",
        "website": "https://www.vuch.com",
        "opening_hours": "Mo-Su 10:00-20:00",
        "names": [
          "Vuch",
          "Marina Wolf"
        ]
      },
      "geometry": {
        "type": "Point",
        "coordinates": [
          14.4216718,
          50.0827503
        ]
      }
    },
    {
      "type": "Feature",
      "properties": {
        "weight": 1.0,
        "id": 718329746,
        "hasDetails": true,
        "name": "Kosmas",
        "address": "Veverkova 1407/16, Praha",
        "website": "https://www.kosmas.cz",
        "opening_hours": "Mo-Fr 09:00-19:00; Sa 10:00-16:00"
      },
      "geometry": {
        "type": "Point",
        "coordinates": [
          14.4320545,
          50.0989693
        ]
      }
    },
    {
      "type": "Feature",
      "properties": {
        "weight": 1.0
      },
      "geometry": {
        "type": "Point",
        "coordinates": [
          14.4212125,
          50.0797999
        ]
      }
    },
    {
      "type": "Feature",
      "properties": {
        "weight": 1.0,
        "id": 821153211,
        "hasDetails": true,
        "name": "Chill Bill",
        "opening_hours": "Mo,Tu 10:00-24:00, We,Th 10:00-12:00, Fr,Sa 10:00-02:00, Su 10:00-12:00"
      },
      "geometry": {
        "type": "Point",
        "coordinates": [
          14.4228588,
          50.0844357
        ]
      }
    },
    {
      "type": "Feature",
      "properties": {
        "weight": 1.0
      },
      "geometry": {
        "type": "Point",
        "coordinates": [
          14.4284529,
          50.0795322
        ]
      }
    },
    {
      "type": "Feature",
      "properties": {
        "weight": 1.0
      },
      "geometry": {
        "type": "Point",
        "coordinates": [
          14.4304662,
          50.0796638
        ]
      }
    },
    {
      "type": "Feature",
      "properties": {
        "weight": 1.0,
        "id": 871308666,
        "hasDetails": true,
        "name": "Koscom",
        "opening_hours": "Mo-Su 09:00-20:00",
        "names": [
          "Koscom",
          "La Formaggeria Gran Moravia"
        ]
      },
      "geometry": {
        "type": "Point",
        "coordinates": [
          14.4345268,
          50.0897705
        ]
      }
    },
    {
      "type": "Feature",
      "properties": {
        "weight": 1.0
      },
      "geometry": {
        "type": "Point",
        "coordinates": [
          14.4160068,
          50.0818925
        ]
      }
    },
    {
      "type": "Feature",
      "properties": {
        "weight": 1.0,
        "id": 889299115,
        "hasDetails": true,
        "address": "\u0160t\u011bp\u00e1nsk\u00e1 704/61, Praha"
      },
      "geometry": {
        "type": "Point",
        "coordinates": [
          14.425943,
          50.0809828
        ]
      }
    },
    {
      "type": "Feature",
      "properties": {
        "weight": 1.0,
        "id": 989045390,
        "hasDetails": true,
        "name": "Bakeshop",
        "amenity": "food_court",
        "address": "Koz\u00ed 1, Praha 1",
        "website": "https://www.bakeshop.cz/",
        "opening_hours": "Mo-Su 7:00-20:00"
      },
      "geometry": {
        "type": "Point",
        "coordinates": [
          14.4223119,
          50.0896927
        ]
      }
    },
    {
      "type": "Feature",
      "properties": {
        "weight": 1.0,
        "id": 997592804,
        "hasDetails": true,
        "name": "Movax",
        "address": "Strossmayerovo n\u00e1m\u011bst\u00ed 965/10, Praha"
      },
      "geometry": {
        "type": "Point",
        "coordinates": [
          14.4342001,
          50.0986292
        ]
      }
    },
    {
      "type": "Feature",
      "properties": {
        "weight": 1.0
      },
      "geometry": {
        "type": "Point",
        "coordinates": [
          14.4335858,
          50.0920606
        ]
      }
    },
    {
      "type": "Feature",
      "properties": {
        "weight": 1.0,
        "id": 1108740433,
        "hasDetails": true,
        "name": "\u0158eznictv\u00ed Ve V\u00fdklenku",
        "website": "https://reznictvivevyklenku.cz/",
        "opening_hours": "Mo-Fr 07:00-18:00; Sa 08:00-12:00"
      },
      "geometry": {
        "type": "Point",
        "coordinates": [
          14.4323675,
          50.0992356
        ]
      }
    },
    {
      "type": "Feature",
      "properties": {
        "weight": 1.0
      },
      "geometry": {
        "type": "Point",
        "coordinates": [
          14.4335839,
          50.0999792
        ]
      }
    },
    {
      "type": "Feature",
      "properties": {
        "weight": 1.0,
        "id": 1134845608,
        "hasDetails": true,
        "name": "Libe\u0159sk\u00e9 lah\u016fdky",
        "address": "Dukelsk\u00fdch hrdin\u016f 691/33, Praha",
        "website": "https://liberskelahudky.cz/",
        "opening_hours": "Mo-Fr 07:00-20:00; Sa,Su 09:00-19:00"
      },
      "geometry": {
        "type": "Point",
        "coordinates": [
          14.4330863,
          50.0992141
        ]
      }
    },
    {
      "type": "Feature",
      "properties": {
        "weight": 1.0,
        "id": 1134845611,
        "hasDetails": true,
        "name": "\u00d3cn\u00ec",
        "opening_hours": "Mo-Th 09:00-18:00; Fr 09:00-16:00",
        "names": [
          "\u00d3cn\u00ec",
          "Textil-Obuv"
        ]
      },
      "geometry": {
        "type": "Point",
        "coordinates": [
          14.4334687,
          50.0991314
        ]
      }
    },
    {
      "type": "Feature",
      "properties": {
        "weight": 1.0
      },
      "geometry": {
        "type": "Point",
        "coordinates": [
          14.4233605,
          50.0808981
        ]
      }
    },
    {
      "type": "Feature",
      "properties": {
        "weight": 1.0,
        "id": 1200799883,
        "hasDetails": true,
        "name": "Pavelski",
        "address": "Letohradsk\u00e1 538/26, Praha 7"
      },
      "geometry": {
        "type": "Point",
        "coordinates": [
          14.4275997,
          50.0985045
        ]
      }
    },
    {
      "type": "Feature",
      "properties": {
        "weight": 1.0
      },
      "geometry": {
        "type": "Point",
        "coordinates": [
          14.4286989,
          50.0893038
        ]
      }
    },
    {
      "type": "Feature",
      "properties": {
        "weight": 1.0,
        "id": 1226574038,
        "hasDetails": true,
        "name": "Lah\u016fdky Zlat\u00fd K\u0159\u00ed\u017e",
        "address": "Jungmannova 750/34, Praha",
        "website": "https://www.lahudkyzlatykriz.cz/",
        "opening_hours": "Mo-Fr 08:00-20:00; Sa 09:00-20:00; Su 09:00-17:00",
        "names": [
          "Lah\u016fdky Zlat\u00fd K\u0159\u00ed\u017e",
          "Julia"
        ]
      },
      "geometry": {
        "type": "Point",
        "coordinates": [
          14.422458,
          50.08246
        ]
      }
    },
    {
      "type": "Feature",
      "properties": {
        "weight": 1.0,
        "id": 1226744002,
        "hasDetails": true,
        "name": "Novom\u011bstsk\u00fd pivovar",
        "amenity": "restaurant",
        "address": "Vodi\u010dkova 20, Praha"
      },
      "geometry": {
        "type": "Point",
        "coordinates": [
          14.4230794,
          50.0795415
        ]
      }
    },
    {
      "type": "Feature",
      "properties": {
        "weight": 1.0
      },
      "geometry": {
        "type": "Point",
        "coordinates": [
          14.4216753,
          50.1003878
        ]
      }
    },
    {
      "type": "Feature",
      "properties": {
        "weight": 1.0,
        "id": 1257276104,
        "hasDetails": true,
        "name": "Pure clean",
        "opening_hours": "Mo-Fr 07:30-19:00"
      },
      "geometry": {
        "type": "Point",
        "coordinates": [
          14.4150074,
          50.0820601
        ]
      }
    },
    {
      "type": "Feature",
      "properties": {
        "weight": 1.0,
        "id": 1257276112,
        "hasDetails": true,
        "name": "nakoupeno.cz",
        "opening_hours": "Mo-Fr 10:00-18:00"
      },
      "geometry": {
        "type": "Point",
        "coordinates": [
          14.4152826,
          50.082018
        ]
      }
    },
    {
      "type": "Feature",
      "properties": {
        "weight": 1.0
      },
      "geometry": {
        "type": "Point",
        "coordinates": [
          14.4183983,
          50.0799713
        ]
      }
    },
    {
      "type": "Feature",
      "properties": {
        "weight": 1.0
      },
      "geometry": {
        "type": "Point",
        "coordinates": [
          14.4171233,
          50.0806175
        ]
      }
    },
    {
      "type": "Feature",
      "properties": {
        "weight": 1.0
      },
      "geometry": {
        "type": "Point",
        "coordinates": [
          14.4170251,
          50.0805116
        ]
      }
    },
    {
      "type": "Feature",
      "properties": {
        "weight": 1.0
      },
      "geometry": {
        "type": "Point",
        "coordinates": [
          14.4169342,
          50.0805936
        ]
      }
    },
    {
      "type": "Feature",
      "properties": {
        "weight": 1.0
      },
      "geometry": {
        "type": "Point",
        "coordinates": [
          14.4170759,
          50.0802548
        ]
      }
    },
    {
      "type": "Feature",
      "properties": {
        "weight": 1.0
      },
      "geometry": {
        "type": "Point",
        "coordinates": [
          14.4140936,
          50.0799841
        ]
      }
    },
    {
      "type": "Feature",
      "properties": {
        "weight": 1.0
      },
      "geometry": {
        "type": "Point",
        "coordinates": [
          14.4179532,
          50.0841137
        ]
      }
    },
    {
      "type": "Feature",
      "properties": {
        "weight": 1.0,
        "id": 1258869792,
        "hasDetails": true,
        "name": "Sanu Babu",
        "address": "Michalsk\u00e1 970/20, Praha",
        "website": "https://www.sanubabu.cz/"
      },
      "geometry": {
        "type": "Point",
        "coordinates": [
          14.420069,
          50.0859398
        ]
      }
    },
    {
      "type": "Feature",
      "properties": {
        "weight": 1.0
      },
      "geometry": {
        "type": "Point",
        "coordinates": [
          14.418637,
          50.0839941
        ]
      }
    },
    {
      "type": "Feature",
      "properties": {
        "weight": 1.0
      },
      "geometry": {
        "type": "Point",
        "coordinates": [
          14.4140126,
          50.0801327
        ]
      }
    },
    {
      "type": "Feature",
      "properties": {
        "weight": 1.0
      },
      "geometry": {
        "type": "Point",
        "coordinates": [
          14.414295,
          50.0788925
        ]
      }
    },
    {
      "type": "Feature",
      "properties": {
        "weight": 1.0,
        "id": 1268273555,
        "hasDetails": true,
        "name": "Bushman",
        "opening_hours": "Mo-Fr 09:30-18:30; Sa 10:00-15:00"
      },
      "geometry": {
        "type": "Point",
        "coordinates": [
          14.4208466,
          50.0792627
        ]
      }
    },
    {
      "type": "Feature",
      "properties": {
        "weight": 1.0,
        "id": 1268273557,
        "hasDetails": true,
        "name": "Pamela's Flowers",
        "address": "Lazarsk\u00e1 6, Praha",
        "opening_hours": "Mo-Fr 08:00-20:00; Sa,Su 09:00-19:00"
      },
      "geometry": {
        "type": "Point",
        "coordinates": [
          14.420839,
          50.0790043
        ]
      }
    },
    {
      "type": "Feature",
      "properties": {
        "weight": 1.0,
        "id": 1268273565,
        "hasDetails": true,
        "name": "Modr\u00e1 pyramida",
        "opening_hours": "Mo-Fr 09:00-12:00, 12:30-17:00"
      },
      "geometry": {
        "type": "Point",
        "coordinates": [
          14.4206819,
          50.0792861
        ]
      }
    },
    {
      "type": "Feature",
      "properties": {
        "weight": 1.0,
        "id": 1290539099,
        "hasDetails": true,
        "name": "Desigual",
        "address": "28. \u0159\u00edjna 371/1, Praha",
        "opening_hours": "Mo-Su 09:00-21:00",
        "names": [
          "Desigual",
          "Orbium s.r.o.",
          "New Era"
        ]
      },
      "geometry": {
        "type": "Point",
        "coordinates": [
          14.4219902,
          50.0833434
        ]
      }
    },
    {
      "type": "Feature",
      "properties": {
        "weight": 1.0
      },
      "geometry": {
        "type": "Point",
        "coordinates": [
          14.4265978,
          50.0908788
        ]
      }
    },
    {
      "type": "Feature",
      "properties": {
        "weight": 1.0
      },
      "geometry": {
        "type": "Point",
        "coordinates": [
          14.4188114,
          50.080817
        ]
      }
    },
    {
      "type": "Feature",
      "properties": {
        "weight": 1.0,
        "id": 1542359330,
        "hasDetails": true,
        "name": "Rossmann",
        "website": "https://www.rossmann.cz/",
        "opening_hours": "Mo-Fr 08:00-20:00; Sa 10:00-20:00; Su 10:00-20:00"
      },
      "geometry": {
        "type": "Point",
        "coordinates": [
          14.4235342,
          50.0855436
        ]
      }
    },
    {
      "type": "Feature",
      "properties": {
        "weight": 1.0,
        "id": 1595990822,
        "hasDetails": true,
        "name": "Fivuza Market",
        "address": "N\u00e1rodn\u00ed 949/19, Praha",
        "opening_hours": "Su-Th 08:00-01:00, Fr,Sa 08:00-02:00",
        "names": [
          "Fivuza Market",
          "D&T"
        ]
      },
      "geometry": {
        "type": "Point",
        "coordinates": [
          14.4174212,
          50.0820454
        ]
      }
    },
    {
      "type": "Feature",
      "properties": {
        "weight": 1.0
      },
      "geometry": {
        "type": "Point",
        "coordinates": [
          14.4235425,
          50.0884689
        ]
      }
    },
    {
      "type": "Feature",
      "properties": {
        "weight": 1.0,
        "id": 1932763656,
        "hasDetails": true,
        "address": "Jeruzal\u00e9msk\u00e1 956/10, Praha"
      },
      "geometry": {
        "type": "Point",
        "coordinates": [
          14.4323616,
          50.0841465
        ]
      }
    },
    {
      "type": "Feature",
      "properties": {
        "weight": 1.0,
        "id": 1946542391,
        "hasDetails": true,
        "name": "Weed Shop Company",
        "opening_hours": "Mo-Su 12:00-21:00"
      },
      "geometry": {
        "type": "Point",
        "coordinates": [
          14.4098997,
          50.0893577
        ]
      }
    },
    {
      "type": "Feature",
      "properties": {
        "weight": 1.0
      },
      "geometry": {
        "type": "Point",
        "coordinates": [
          14.4079685,
          50.0872719
        ]
      }
    },
    {
      "type": "Feature",
      "properties": {
        "weight": 1.0,
        "id": 1946542583,
        "hasDetails": true,
        "name": "Bohemia Gran\u00e1t",
        "opening_hours": "Mo-Su 10:00-20:00"
      },
      "geometry": {
        "type": "Point",
        "coordinates": [
          14.4140196,
          50.0860535
        ]
      }
    },
    {
      "type": "Feature",
      "properties": {
        "weight": 1.0
      },
      "geometry": {
        "type": "Point",
        "coordinates": [
          14.4141483,
          50.0859295
        ]
      }
    },
    {
      "type": "Feature",
      "properties": {
        "weight": 1.0,
        "id": 1947157418,
        "hasDetails": true,
        "name": "Nespresso",
        "cuisine": "coffee_shop",
        "address": "Pa\u0159\u00ed\u017esk\u00e1 10, Praha",
        "opening_hours": "Mo-Su 10:00-19:00"
      },
      "geometry": {
        "type": "Point",
        "coordinates": [
          14.4199261,
          50.0889093
        ]
      }
    },
    {
      "type": "Feature",
      "properties": {
        "weight": 1.0
      },
      "geometry": {
        "type": "Point",
        "coordinates": [
          14.4182467,
          50.0899152
        ]
      }
    },
    {
      "type": "Feature",
      "properties": {
        "weight": 1.0,
        "id": 1948155684,
        "hasDetails": true,
        "name": "Gift shop Maiselova 19",
        "address": "Maiselova 19",
        "website": "https://www.sevcikcrystal.cz/",
        "opening_hours": "Mo-Su 09:00-19:00",
        "names": [
          "Gift shop Maiselova 19",
          "Japanese Beauty Supplements"
        ]
      },
      "geometry": {
        "type": "Point",
        "coordinates": [
          14.4182545,
          50.0900492
        ]
      }
    },
    {
      "type": "Feature",
      "properties": {
        "weight": 1.0,
        "id": 1948155686,
        "hasDetails": true,
        "name": "Amorino",
        "amenity": "ice_cream",
        "address": "n\u00e1m\u011bst\u00ed Franze Kafky 24/3, Praha",
        "opening_hours": "Su-Th 10:00-20:00; Fr,Sa 10:00-21:00"
      },
      "geometry": {
        "type": "Point",
        "coordinates": [
          14.4192744,
          50.0879237
        ]
      }
    },
    {
      "type": "Feature",
      "properties": {
        "weight": 1.0,
        "id": 1948155690,
        "hasDetails": true,
        "name": "Moser",
        "address": "Starom\u011bstsk\u00e9 n\u00e1m\u011bst\u00ed 15, Praha",
        "website": "https://www.moser-glass.com/",
        "opening_hours": "Mo-Su 10:00-19:00"
      },
      "geometry": {
        "type": "Point",
        "coordinates": [
          14.4221683,
          50.0873278
        ]
      }
    },
    {
      "type": "Feature",
      "properties": {
        "weight": 1.0,
        "id": 1948155692,
        "hasDetails": true,
        "name": "Swarovski",
        "opening_hours": "Mo-Su 10:00-20:00"
      },
      "geometry": {
        "type": "Point",
        "coordinates": [
          14.4231176,
          50.0873545
        ]
      }
    },
    {
      "type": "Feature",
      "properties": {
        "weight": 1.0
      },
      "geometry": {
        "type": "Point",
        "coordinates": [
          14.4239759,
          50.0901424
        ]
      }
    },
    {
      "type": "Feature",
      "properties": {
        "weight": 1.0
      },
      "geometry": {
        "type": "Point",
        "coordinates": [
          14.4238687,
          50.0898464
        ]
      }
    },
    {
      "type": "Feature",
      "properties": {
        "weight": 1.0
      },
      "geometry": {
        "type": "Point",
        "coordinates": [
          14.4191909,
          50.086439
        ]
      }
    },
    {
      "type": "Feature",
      "properties": {
        "weight": 1.0
      },
      "geometry": {
        "type": "Point",
        "coordinates": [
          14.4189334,
          50.0863564
        ]
      }
    },
    {
      "type": "Feature",
      "properties": {
        "weight": 1.0
      },
      "geometry": {
        "type": "Point",
        "coordinates": [
          14.4189119,
          50.0862256
        ]
      }
    },
    {
      "type": "Feature",
      "properties": {
        "weight": 1.0,
        "id": 1948155718,
        "hasDetails": true,
        "name": "Manufaktura",
        "address": "Karlova 149/21, Praha",
        "website": "https://manufaktura.cz/",
        "opening_hours": "Mo-Su 10:00-20:00"
      },
      "geometry": {
        "type": "Point",
        "coordinates": [
          14.418551,
          50.0861483
        ]
      }
    },
    {
      "type": "Feature",
      "properties": {
        "weight": 1.0,
        "id": 1948155720,
        "hasDetails": true,
        "name": "Old Prague Market",
        "opening_hours": "Mo-Su 12:00-01:00"
      },
      "geometry": {
        "type": "Point",
        "coordinates": [
          14.418354,
          50.0860397
        ]
      }
    },
    {
      "type": "Feature",
      "properties": {
        "weight": 1.0
      },
      "geometry": {
        "type": "Point",
        "coordinates": [
          14.4287395,
          50.0890754
        ]
      }
    },
    {
      "type": "Feature",
      "properties": {
        "weight": 1.0,
        "id": 1948155874,
        "hasDetails": true,
        "name": "Vermont",
        "website": "https://www.vermont.cz/vermont-store-prasna-brana",
        "opening_hours": "Mo-Sa 09:00-20:00; Su 10:00-20:00"
      },
      "geometry": {
        "type": "Point",
        "coordinates": [
          14.4272429,
          50.0874044
        ]
      }
    },
    {
      "type": "Feature",
      "properties": {
        "weight": 1.0
      },
      "geometry": {
        "type": "Point",
        "coordinates": [
          14.425419,
          50.0872633
        ]
      }
    },
    {
      "type": "Feature",
      "properties": {
        "weight": 1.0
      },
      "geometry": {
        "type": "Point",
        "coordinates": [
          14.4175816,
          50.0883595
        ]
      }
    },
    {
      "type": "Feature",
      "properties": {
        "weight": 1.0,
        "id": 1949439293,
        "hasDetails": true,
        "name": "HUDYsport",
        "address": "Na Per\u0161t\u00fdn\u011b 355/14, Praha",
        "website": "https://www.hudy.cz/",
        "opening_hours": "Mo-Fr 10:00-19:30; Sa 10:00-18:00; Su 11:00-16:00"
      },
      "geometry": {
        "type": "Point",
        "coordinates": [
          14.4185544,
          50.0837978
        ]
      }
    },
    {
      "type": "Feature",
      "properties": {
        "weight": 1.0,
        "id": 1949439316,
        "hasDetails": true,
        "name": "Rock Point",
        "address": "Martinsk\u00e1 360/2, Praha",
        "website": "https://www.rockpoint.cz/",
        "opening_hours": "Mo-Fr 10:00-20:00; Sa,Su 10:00-18:00"
      },
      "geometry": {
        "type": "Point",
        "coordinates": [
          14.419085,
          50.0828712
        ]
      }
    },
    {
      "type": "Feature",
      "properties": {
        "weight": 1.0,
        "id": 1949439322,
        "hasDetails": true,
        "address": "Na Po\u0159\u00ed\u010d\u00ed 1040/10, Praha 1"
      },
      "geometry": {
        "type": "Point",
        "coordinates": [
          14.4309258,
          50.0890388
        ]
      }
    },
    {
      "type": "Feature",
      "properties": {
        "weight": 1.0,
        "id": 1977593516,
        "hasDetails": true,
        "name": "Billa",
        "website": "https://www.billa.cz/",
        "opening_hours": "Mo-Fr 06:00-23:00; Sa,Su 07:00-23:00",
        "names": [
          "Billa",
          "Bohemia Wine"
        ]
      },
      "geometry": {
        "type": "Point",
        "coordinates": [
          14.4340534,
          50.0829566
        ]
      }
    },
    {
      "type": "Feature",
      "properties": {
        "weight": 1.0,
        "id": 1977821254,
        "hasDetails": true,
        "name": "Cartier",
        "address": "Pa\u0159\u00ed\u017esk\u00e1 2, Praha",
        "opening_hours": "Mo-Fr 10:30-19:00; Sa 10:30-18:00; Su 12:00-18:00"
      },
      "geometry": {
        "type": "Point",
        "coordinates": [
          14.4205038,
          50.0880086
        ]
      }
    },
    {
      "type": "Feature",
      "properties": {
        "weight": 1.0
      },
      "geometry": {
        "type": "Point",
        "coordinates": [
          14.4214875,
          50.0885165
        ]
      }
    },
    {
      "type": "Feature",
      "properties": {
        "weight": 1.0
      },
      "geometry": {
        "type": "Point",
        "coordinates": [
          14.4216798,
          50.0877864
        ]
      }
    },
    {
      "type": "Feature",
      "properties": {
        "weight": 1.0
      },
      "geometry": {
        "type": "Point",
        "coordinates": [
          14.41601,
          50.0844282
        ]
      }
    },
    {
      "type": "Feature",
      "properties": {
        "weight": 1.0
      },
      "geometry": {
        "type": "Point",
        "coordinates": [
          14.415854,
          50.0844104
        ]
      }
    },
    {
      "type": "Feature",
      "properties": {
        "weight": 1.0
      },
      "geometry": {
        "type": "Point",
        "coordinates": [
          14.4345034,
          50.0908725
        ]
      }
    },
    {
      "type": "Feature",
      "properties": {
        "weight": 1.0
      },
      "geometry": {
        "type": "Point",
        "coordinates": [
          14.4344806,
          50.0909732
        ]
      }
    },
    {
      "type": "Feature",
      "properties": {
        "weight": 1.0,
        "id": 2145162674,
        "hasDetails": true,
        "name": "Hanibal Sport",
        "address": "Senov\u00e1\u017en\u00e9 n\u00e1m\u011bst\u00ed 982/20, Praha",
        "website": "https://www.hanibal.cz/",
        "opening_hours": "Mo-Fr 10:00-19:00; Sa 10:00-15:00"
      },
      "geometry": {
        "type": "Point",
        "coordinates": [
          14.4327998,
          50.0855227
        ]
      }
    },
    {
      "type": "Feature",
      "properties": {
        "weight": 1.0,
        "id": 2343343315,
        "hasDetails": true,
        "name": "Hairpoint",
        "opening_hours": "Mo-Fr 07:00-19:00; Sa 09:00-13:00"
      },
      "geometry": {
        "type": "Point",
        "coordinates": [
          14.4200076,
          50.0839482
        ]
      }
    },
    {
      "type": "Feature",
      "properties": {
        "weight": 1.0,
        "id": 2358266389,
        "hasDetails": true,
        "name": "Pitstop",
        "address": "Kaprova 14/13, Praha",
        "opening_hours": "Mo-Su 10:00-24:00"
      },
      "geometry": {
        "type": "Point",
        "coordinates": [
          14.4188489,
          50.0880414
        ]
      }
    },
    {
      "type": "Feature",
      "properties": {
        "weight": 1.0,
        "id": 2358380972,
        "hasDetails": true,
        "name": "Erhartova cukr\u00e1rna",
        "address": "Milady Hor\u00e1kov\u00e9 387/56, Praha",
        "website": "https://www.erhartovacukrarna.cz/",
        "opening_hours": "Mo-Su 10:00-19:00"
      },
      "geometry": {
        "type": "Point",
        "coordinates": [
          14.4255661,
          50.100106
        ]
      }
    },
    {
      "type": "Feature",
      "properties": {
        "weight": 1.0,
        "id": 2414220367,
        "hasDetails": true,
        "name": "Stoklasa",
        "website": "https://www.stoklasa.cz/",
        "opening_hours": "Mo-Fr 09:00-19:00; Sa,Su 09:00-13:00"
      },
      "geometry": {
        "type": "Point",
        "coordinates": [
          14.4312411,
          50.0860522
        ]
      }
    },
    {
      "type": "Feature",
      "properties": {
        "weight": 1.0,
        "id": 2485213561,
        "hasDetails": true,
        "name": "Manufaktura",
        "address": "Melantrichova 970/17, Praha",
        "website": "https://manufaktura.cz/",
        "opening_hours": "Mo-Su 10:00-20:00"
      },
      "geometry": {
        "type": "Point",
        "coordinates": [
          14.4204766,
          50.0858615
        ]
      }
    },
    {
      "type": "Feature",
      "properties": {
        "weight": 1.0,
        "id": 2510652500,
        "hasDetails": true,
        "name": "Comics Point",
        "address": "N\u00e1m\u011bst\u00ed Republiky, Praha 1",
        "website": "https://www.comicspoint.cz/",
        "opening_hours": "Mo-Su 9:00-21:00"
      },
      "geometry": {
        "type": "Point",
        "coordinates": [
          14.4293695,
          50.0895162
        ]
      }
    },
    {
      "type": "Feature",
      "properties": {
        "weight": 1.0,
        "id": 2564490508,
        "hasDetails": true,
        "name": "Iris",
        "opening_hours": "\"Dle objedn\u00e1vek\"",
        "names": [
          "Iris",
          "Pedi od G\u00e1bi"
        ]
      },
      "geometry": {
        "type": "Point",
        "coordinates": [
          14.4281486,
          50.0986764
        ]
      }
    },
    {
      "type": "Feature",
      "properties": {
        "weight": 1.0,
        "id": 2677069997,
        "hasDetails": true,
        "name": "B\u00e9 FOTO",
        "website": "https://www.befoto.cz/",
        "opening_hours": "Mo-Th 10:00-13:00; Sa 10:00-13:00"
      },
      "geometry": {
        "type": "Point",
        "coordinates": [
          14.4341309,
          50.0983459
        ]
      }
    },
    {
      "type": "Feature",
      "properties": {
        "weight": 1.0,
        "id": 2714749717,
        "hasDetails": true,
        "name": "Krakatit",
        "website": "https://www.krakatit.cz/",
        "opening_hours": "Mo-Fr 09:30-18:30; Sa 10:00-13:00",
        "names": [
          "Krakatit",
          "Optik Studio"
        ]
      },
      "geometry": {
        "type": "Point",
        "coordinates": [
          14.422535,
          50.0806398
        ]
      }
    },
    {
      "type": "Feature",
      "properties": {
        "weight": 1.0
      },
      "geometry": {
        "type": "Point",
        "coordinates": [
          14.4188003,
          50.0821245
        ]
      }
    },
    {
      "type": "Feature",
      "properties": {
        "weight": 1.0,
        "id": 2793568910,
        "hasDetails": true,
        "name": "\u017dabka",
        "opening_hours": "Mo-Su 06:00-23:00; PH off"
      },
      "geometry": {
        "type": "Point",
        "coordinates": [
          14.4350079,
          50.0871489
        ]
      }
    },
    {
      "type": "Feature",
      "properties": {
        "weight": 1.0,
        "id": 2795822838,
        "hasDetails": true,
        "name": "1. Podzemn\u00ed antikvari\u00e1t",
        "address": "Hybernsk\u00e1 1008/22",
        "website": "https://www.podzemni-antikvariat.cz",
        "opening_hours": "Mo-Fr 09:00-19:00"
      },
      "geometry": {
        "type": "Point",
        "coordinates": [
          14.4336317,
          50.0871411
        ]
      }
    },
    {
      "type": "Feature",
      "properties": {
        "weight": 1.0
      },
      "geometry": {
        "type": "Point",
        "coordinates": [
          14.4333746,
          50.0872864
        ]
      }
    },
    {
      "type": "Feature",
      "properties": {
        "weight": 1.0,
        "id": 2798026690,
        "hasDetails": true,
        "name": "Mr. Baker",
        "website": "https://www.mrbaker.cz/",
        "opening_hours": "Mo-Fr 06:00-18:00"
      },
      "geometry": {
        "type": "Point",
        "coordinates": [
          14.4336837,
          50.0874459
        ]
      }
    },
    {
      "type": "Feature",
      "properties": {
        "weight": 1.0,
        "id": 2926454155,
        "hasDetails": true,
        "name": "Souvenir with a Story",
        "address": "Praha"
      },
      "geometry": {
        "type": "Point",
        "coordinates": [
          14.4224545,
          50.0846149
        ]
      }
    },
    {
      "type": "Feature",
      "properties": {
        "weight": 1.0,
        "id": 2927529601,
        "hasDetails": true,
        "name": "Kubista",
        "address": "Ovocn\u00fd trh 19, Praha",
        "website": "https://www.kubista.cz/",
        "opening_hours": "Mo-Su 10:00-19:00"
      },
      "geometry": {
        "type": "Point",
        "coordinates": [
          14.4254679,
          50.0869111
        ]
      }
    },
    {
      "type": "Feature",
      "properties": {
        "weight": 1.0,
        "id": 2961684721,
        "hasDetails": true,
        "name": "Libe\u0159sk\u00e9 lah\u016fdky",
        "website": "https://liberskelahudky.cz/",
        "opening_hours": "Mo-Fr 06:30-19:00, Sa,Su 08:00-18:00"
      },
      "geometry": {
        "type": "Point",
        "coordinates": [
          14.4349197,
          50.0901198
        ]
      }
    },
    {
      "type": "Feature",
      "properties": {
        "weight": 1.0,
        "id": 2989896328,
        "hasDetails": true,
        "name": "Botanicus",
        "address": "T\u00fdn 1049/3, Praha",
        "website": "https://www.botanicus.cz/",
        "opening_hours": "Mo-Su 10:00-19:00"
      },
      "geometry": {
        "type": "Point",
        "coordinates": [
          14.4236587,
          50.0881082
        ]
      }
    },
    {
      "type": "Feature",
      "properties": {
        "weight": 1.0,
        "id": 3019724720,
        "hasDetails": true,
        "name": "Ovocn\u00fd Sv\u011btozor",
        "amenity": "cafe",
        "cuisine": "cake;ice_cream",
        "address": "Vodi\u010dkova 791/39, Praha",
        "website": "https://www.ovocnysvetozor.cz/",
        "opening_hours": "Mo-Fr 08:00-20:00; Sa 09:00-20:00; Su 10:00-20:00"
      },
      "geometry": {
        "type": "Point",
        "coordinates": [
          14.4248767,
          50.0818396
        ]
      }
    },
    {
      "type": "Feature",
      "properties": {
        "weight": 1.0,
        "id": 3032139052,
        "hasDetails": true,
        "name": "Patagonia",
        "opening_hours": "PH,Mo-Su 10:00-18:00"
      },
      "geometry": {
        "type": "Point",
        "coordinates": [
          14.427827,
          50.0896019
        ]
      }
    },
    {
      "type": "Feature",
      "properties": {
        "weight": 1.0,
        "id": 3104085025,
        "hasDetails": true,
        "name": "Potraviny - Grocery",
        "address": "Vodi\u010dkova 16, Praha"
      },
      "geometry": {
        "type": "Point",
        "coordinates": [
          14.4224562,
          50.0792995
        ]
      }
    },
    {
      "type": "Feature",
      "properties": {
        "weight": 1.0,
        "id": 3104085028,
        "hasDetails": true,
        "name": "Bazar CD",
        "address": "\u0160kolsk\u00e1 36, Praha",
        "website": "https://www.bazar-cd.cz/",
        "opening_hours": "Mo-Fr 09:00-19:00; Sa 10:00-14:00",
        "names": [
          "Bazar CD",
          "Amana"
        ]
      },
      "geometry": {
        "type": "Point",
        "coordinates": [
          14.4237562,
          50.0799333
        ]
      }
    },
    {
      "type": "Feature",
      "properties": {
        "weight": 1.0,
        "id": 3135529989,
        "hasDetails": true,
        "name": "Na\u0161e maso",
        "address": "Dlouh\u00e1 39, Praha 1",
        "website": "https://nasemaso.ambi.cz/",
        "opening_hours": "Mo-Th 11:00-22:00; Fr,Sa 10:00-22:00"
      },
      "geometry": {
        "type": "Point",
        "coordinates": [
          14.4268561,
          50.0907981
        ]
      }
    },
    {
      "type": "Feature",
      "properties": {
        "weight": 1.0,
        "id": 3183501712,
        "hasDetails": true,
        "name": "Crystal",
        "opening_hours": "Mo-Su 09:30-21:00",
        "names": [
          "Crystal",
          "Pylones"
        ]
      },
      "geometry": {
        "type": "Point",
        "coordinates": [
          14.4235063,
          50.0872867
        ]
      }
    },
    {
      "type": "Feature",
      "properties": {
        "weight": 1.0,
        "id": 3183501715,
        "hasDetails": true,
        "address": "n\u00e1m\u011bst\u00ed Republiky 660/6, Praha"
      },
      "geometry": {
        "type": "Point",
        "coordinates": [
          14.4282131,
          50.0884483
        ]
      }
    },
    {
      "type": "Feature",
      "properties": {
        "weight": 1.0,
        "id": 3183501720,
        "hasDetails": true,
        "name": "\u010cesk\u00e1 mincovna",
        "address": "Na P\u0159\u00edkop\u011b 24, Praha"
      },
      "geometry": {
        "type": "Point",
        "coordinates": [
          14.4277939,
          50.0866627
        ]
      }
    },
    {
      "type": "Feature",
      "properties": {
        "weight": 1.0,
        "id": 3183568881,
        "hasDetails": true,
        "name": "Billa",
        "address": "V Celnici 1031/4, Praha",
        "website": "https://www.billa.cz/",
        "opening_hours": "Mo-Sa 07:00-23:00; Su 08:00-23:00"
      },
      "geometry": {
        "type": "Point",
        "coordinates": [
          14.4300293,
          50.0879764
        ]
      }
    },
    {
      "type": "Feature",
      "properties": {
        "weight": 1.0,
        "id": 3189682941,
        "hasDetails": true,
        "name": "Food Story",
        "amenity": "food_court",
        "website": "https://www.foodstory.cz/",
        "opening_hours": "Mo-Su 09:00-21:00",
        "names": [
          "Food Story",
          "Ryb\u00e1rna Blue Fjord"
        ]
      },
      "geometry": {
        "type": "Point",
        "coordinates": [
          14.4227306,
          50.0892142
        ]
      }
    },
    {
      "type": "Feature",
      "properties": {
        "weight": 1.0,
        "id": 3196599840,
        "hasDetails": true,
        "name": "\u010cajov\u00fd kr\u00e1mek",
        "website": "https://www.cajovykramek.cz/",
        "opening_hours": "Mo-Fr 09:30-11:30, 12:00-19:00; Sa 10:00-11:30, 12:00-19:00"
      },
      "geometry": {
        "type": "Point",
        "coordinates": [
          14.4184976,
          50.0819927
        ]
      }
    },
    {
      "type": "Feature",
      "properties": {
        "weight": 1.0
      },
      "geometry": {
        "type": "Point",
        "coordinates": [
          14.4212163,
          50.0799036
        ]
      }
    },
    {
      "type": "Feature",
      "properties": {
        "weight": 1.0,
        "id": 3231039161,
        "hasDetails": true,
        "name": "Sanu Babu",
        "address": "Lazarsk\u00e1 6, Praha",
        "website": "https://www.sanubabu.cz/",
        "opening_hours": "Mo-Fr 10:00-18:00; Sa 10:00-17:00"
      },
      "geometry": {
        "type": "Point",
        "coordinates": [
          14.421054,
          50.0790017
        ]
      }
    },
    {
      "type": "Feature",
      "properties": {
        "weight": 1.0,
        "id": 3243798663,
        "hasDetails": true,
        "name": "La Bottega Bistroteka",
        "amenity": "restaurant",
        "cuisine": "italian",
        "address": "Dlouh\u00e1 39/39, Praha 1",
        "website": "https://bistroteka.labottega.cz/",
        "opening_hours": "Mo-Th 08:00-20:00; Sa,Su 09:00-18:00"
      },
      "geometry": {
        "type": "Point",
        "coordinates": [
          14.4270781,
          50.0908079
        ]
      }
    },
    {
      "type": "Feature",
      "properties": {
        "weight": 1.0,
        "id": 3243798664,
        "hasDetails": true,
        "name": "La Bottega di Finestra",
        "address": "Platn\u00e9\u0159sk\u00e1 11, Praha",
        "website": "https://lafinestra.labottega.cz/",
        "opening_hours": "Mo-Sa 08:30-22:30; Su 08:30-20:30"
      },
      "geometry": {
        "type": "Point",
        "coordinates": [
          14.4159349,
          50.0873161
        ]
      }
    },
    {
      "type": "Feature",
      "properties": {
        "weight": 1.0,
        "id": 3268515401,
        "hasDetails": true,
        "name": "Rossmann",
        "website": "https://www.rossmann.cz/",
        "opening_hours": "Mo-Fr 09:00-20:00; Sa,Su 10:00-19:00"
      },
      "geometry": {
        "type": "Point",
        "coordinates": [
          14.4244757,
          50.0811295
        ]
      }
    },
    {
      "type": "Feature",
      "properties": {
        "weight": 1.0,
        "id": 3276685323,
        "hasDetails": true,
        "name": "Dana Bohemia",
        "address": "N\u00e1rodn\u00ed 365/43, Praha",
        "website": "https://www.danabohemia.cz/"
      },
      "geometry": {
        "type": "Point",
        "coordinates": [
          14.4212343,
          50.0832041
        ]
      }
    },
    {
      "type": "Feature",
      "properties": {
        "weight": 1.0,
        "id": 3289594932,
        "hasDetails": true,
        "name": "Kosina",
        "address": "Kaprova 7, Praha",
        "website": "https://www.reznictvikosina.com/",
        "opening_hours": "Mo-Fr 08:00-16:00; Sa,Su,PH off"
      },
      "geometry": {
        "type": "Point",
        "coordinates": [
          14.4172681,
          50.0884238
        ]
      }
    },
    {
      "type": "Feature",
      "properties": {
        "weight": 1.0,
        "id": 3289594951,
        "hasDetails": true,
        "name": "Trafika",
        "address": "Kaprova 52/6, Praha",
        "opening_hours": "Mo-Fr 06:00-22:00; Sa,Su 09:00-22:00"
      },
      "geometry": {
        "type": "Point",
        "coordinates": [
          14.4169502,
          50.0882722
        ]
      }
    },
    {
      "type": "Feature",
      "properties": {
        "weight": 1.0,
        "id": 3306063756,
        "hasDetails": true,
        "name": "Kalich",
        "address": "Jungmannova 22/9, Praha",
        "website": "https://www.ekalich.cz/",
        "opening_hours": "Mo-Fr 10:00-18:00"
      },
      "geometry": {
        "type": "Point",
        "coordinates": [
          14.4221662,
          50.0801771
        ]
      }
    },
    {
      "type": "Feature",
      "properties": {
        "weight": 1.0,
        "id": 3311586820,
        "hasDetails": true,
        "name": "Cukr\u00e1rna Astra",
        "amenity": "cafe",
        "address": "Perlov\u00e1 1020/8, Praha",
        "website": "http://www.cukrarna-astra.cz/",
        "opening_hours": "Mo-Sa 07:30-19:00; Su 09:00-19:00",
        "names": [
          "Cukr\u00e1rna Astra",
          "Staro\u010desk\u00e1 pek\u00e1rna - cukr\u00e1rna"
        ]
      },
      "geometry": {
        "type": "Point",
        "coordinates": [
          14.4212764,
          50.0833988
        ]
      }
    },
    {
      "type": "Feature",
      "properties": {
        "weight": 1.0,
        "id": 3328504529,
        "hasDetails": true,
        "name": "Seidl",
        "address": "\u0160t\u011bp\u00e1nsk\u00e1 617/26, Praha",
        "website": "http://knihyseidl.cz/",
        "names": [
          "Seidl",
          "Prague Old School Barbershop"
        ]
      },
      "geometry": {
        "type": "Point",
        "coordinates": [
          14.4256053,
          50.0789136
        ]
      }
    },
    {
      "type": "Feature",
      "properties": {
        "weight": 1.0,
        "id": 3336079823,
        "hasDetails": true,
        "name": "Potraviny U Havelk\u016f (\u017dabka)",
        "address": "Kaprova 16/9, Praha",
        "website": "https://izabka.cz/",
        "opening_hours": "Mo-Su 06:00-23:00",
        "names": [
          "Potraviny U Havelk\u016f (\u017dabka)",
          "the item."
        ]
      },
      "geometry": {
        "type": "Point",
        "coordinates": [
          14.4178709,
          50.0882905
        ]
      }
    },
    {
      "type": "Feature",
      "properties": {
        "weight": 1.0,
        "id": 3343392544,
        "hasDetails": true,
        "name": "Galerie Antik Ambra",
        "address": "Kaprova 14, Praha",
        "opening_hours": "Mo-Sa 10:00-18:00"
      },
      "geometry": {
        "type": "Point",
        "coordinates": [
          14.4181107,
          50.0879727
        ]
      }
    },
    {
      "type": "Feature",
      "properties": {
        "weight": 1.0,
        "id": 3343768361,
        "hasDetails": true,
        "name": "Cheesy & Co",
        "address": "Letensk\u00e9 n\u00e1m\u011bst\u00ed 6",
        "website": "http://www.cheesyandko.cz/cs/obchody/cheesy-ko-letna/",
        "opening_hours": "Mo-Fr 10:00-19:00; Sa 09:00-15:00"
      },
      "geometry": {
        "type": "Point",
        "coordinates": [
          14.4243957,
          50.1002331
        ]
      }
    },
    {
      "type": "Feature",
      "properties": {
        "weight": 1.0,
        "id": 3357460004,
        "hasDetails": true,
        "name": "Dogtown",
        "website": "https://www.dogtown.cz/",
        "opening_hours": "Mo-Fr 10:00-19:00; Sa 10:00-17:00"
      },
      "geometry": {
        "type": "Point",
        "coordinates": [
          14.4228598,
          50.1002799
        ]
      }
    },
    {
      "type": "Feature",
      "properties": {
        "weight": 1.0
      },
      "geometry": {
        "type": "Point",
        "coordinates": [
          14.425212,
          50.1001215
        ]
      }
    },
    {
      "type": "Feature",
      "properties": {
        "weight": 1.0,
        "id": 3358202202,
        "hasDetails": true,
        "name": "Emil Gaigher",
        "address": "Milady Hor\u00e1kov\u00e9 54, Praha 7",
        "website": "https://www.gaigher.cz/",
        "opening_hours": "Mo-Fr 10:00-19:00"
      },
      "geometry": {
        "type": "Point",
        "coordinates": [
          14.4257941,
          50.1000871
        ]
      }
    },
    {
      "type": "Feature",
      "properties": {
        "weight": 1.0
      },
      "geometry": {
        "type": "Point",
        "coordinates": [
          14.4260013,
          50.1000661
        ]
      }
    },
    {
      "type": "Feature",
      "properties": {
        "weight": 1.0
      },
      "geometry": {
        "type": "Point",
        "coordinates": [
          14.4262079,
          50.1000531
        ]
      }
    },
    {
      "type": "Feature",
      "properties": {
        "weight": 1.0
      },
      "geometry": {
        "type": "Point",
        "coordinates": [
          14.426534,
          50.1000468
        ]
      }
    },
    {
      "type": "Feature",
      "properties": {
        "weight": 1.0,
        "id": 3358235821,
        "hasDetails": true,
        "name": "Royal Clean",
        "address": "Milady Hor\u00e1kov\u00e9 389/44, Praha",
        "website": "https://www.royalclean.cz/"
      },
      "geometry": {
        "type": "Point",
        "coordinates": [
          14.4267298,
          50.1000227
        ]
      }
    },
    {
      "type": "Feature",
      "properties": {
        "weight": 1.0
      },
      "geometry": {
        "type": "Point",
        "coordinates": [
          14.4270034,
          50.0999917
        ]
      }
    },
    {
      "type": "Feature",
      "properties": {
        "weight": 1.0,
        "id": 3361947615,
        "hasDetails": true,
        "name": "Tab\u00e1k",
        "address": "Milady Hor\u00e1kov\u00e9 65, Praha 7"
      },
      "geometry": {
        "type": "Point",
        "coordinates": [
          14.4250107,
          50.0999179
        ]
      }
    },
    {
      "type": "Feature",
      "properties": {
        "weight": 1.0,
        "id": 3361947617,
        "hasDetails": true,
        "name": "Merhautovo peka\u0159stv\u00ed",
        "address": "Milady Hor\u00e1kov\u00e9 61, Praha 7",
        "website": "https://merhautovo.cz/",
        "opening_hours": "Mo-Fr 07:00-19:00"
      },
      "geometry": {
        "type": "Point",
        "coordinates": [
          14.4253366,
          50.0998998
        ]
      }
    },
    {
      "type": "Feature",
      "properties": {
        "weight": 1.0,
        "id": 3376644439,
        "hasDetails": true,
        "name": "Depo V\u00edn Praha",
        "address": "Dukelsk\u00fdch hrdin\u016f 15, Praha 7",
        "website": "https://www.lobkowicz-vinarstvi.cz/"
      },
      "geometry": {
        "type": "Point",
        "coordinates": [
          14.4326,
          50.0971101
        ]
      }
    },
    {
      "type": "Feature",
      "properties": {
        "weight": 1.0,
        "id": 3391079727,
        "hasDetails": true,
        "name": "Antique",
        "address": "Maiselova 4, Praha",
        "opening_hours": "Mo-Su 10:30-19:00"
      },
      "geometry": {
        "type": "Point",
        "coordinates": [
          14.4190129,
          50.088167
        ]
      }
    },
    {
      "type": "Feature",
      "properties": {
        "weight": 1.0,
        "id": 3391079729,
        "hasDetails": true,
        "name": "Antique Cinolter",
        "address": "Maiselova 9, Praha",
        "opening_hours": "Mo-Fr 10:00-19:00; Sa,Su 10:00-18:00"
      },
      "geometry": {
        "type": "Point",
        "coordinates": [
          14.418322,
          50.0888481
        ]
      }
    },
    {
      "type": "Feature",
      "properties": {
        "weight": 1.0,
        "id": 3391079730,
        "hasDetails": true,
        "name": "Luisa Cerano",
        "address": "Maiselova 11, Praha",
        "opening_hours": "Mo 12:00-19:00; Tu-Fr 10:00-19:00; Sa 10:00-18:00; Su 12:00-18:00",
        "names": [
          "Luisa Cerano",
          "Marina Rinaldi"
        ]
      },
      "geometry": {
        "type": "Point",
        "coordinates": [
          14.4182995,
          50.0889655
        ]
      }
    },
    {
      "type": "Feature",
      "properties": {
        "weight": 1.0,
        "id": 3391091252,
        "hasDetails": true,
        "name": "Grace Collection",
        "address": "\u0160irok\u00e1 5, Praha",
        "opening_hours": "Mo-Fr 10:30-19:00; Sa,Su 12:00-18:00"
      },
      "geometry": {
        "type": "Point",
        "coordinates": [
          14.4179977,
          50.0892211
        ]
      }
    },
    {
      "type": "Feature",
      "properties": {
        "weight": 1.0,
        "id": 3401436639,
        "hasDetails": true,
        "name": "OKOLO",
        "amenity": "bicycle_rental",
        "address": "Revolu\u010dn\u00ed 1082/8, Praha",
        "website": "http://www.okolo-bikes.cz/",
        "opening_hours": "\"by appointment tel +420 602237270\""
      },
      "geometry": {
        "type": "Point",
        "coordinates": [
          14.4283055,
          50.0901169
        ]
      }
    },
    {
      "type": "Feature",
      "properties": {
        "weight": 1.0,
        "id": 3413996973,
        "hasDetails": true,
        "name": "Gismondi",
        "address": "Pa\u0159\u00ed\u017esk\u00e1 4, Praha",
        "opening_hours": "Mo-Fr 10:00-19:00; Sa 10:00-18:00; Su 11:00-18:00"
      },
      "geometry": {
        "type": "Point",
        "coordinates": [
          14.4203902,
          50.088177
        ]
      }
    },
    {
      "type": "Feature",
      "properties": {
        "weight": 1.0,
        "id": 3413996974,
        "hasDetails": true,
        "name": "Dior",
        "address": "Pa\u0159\u00ed\u017esk\u00e1 4, Praha",
        "opening_hours": "Mo-Fr 10:00-19:00; Sa 10:00-18:00; Su 12:00-18:00"
      },
      "geometry": {
        "type": "Point",
        "coordinates": [
          14.4203177,
          50.0883053
        ]
      }
    },
    {
      "type": "Feature",
      "properties": {
        "weight": 1.0,
        "id": 3413996975,
        "hasDetails": true,
        "name": "Breitling",
        "address": "Pa\u0159\u00ed\u017esk\u00e1 1, Praha",
        "opening_hours": "Mo-Fr 10:00-19:00; Sa 11:00-18:00; Su 12:00-18:00",
        "names": [
          "Breitling",
          "Roberto Coin"
        ]
      },
      "geometry": {
        "type": "Point",
        "coordinates": [
          14.420012,
          50.0881237
        ]
      }
    },
    {
      "type": "Feature",
      "properties": {
        "weight": 1.0,
        "id": 3413996977,
        "hasDetails": true,
        "name": "Saint Laurent",
        "address": "Pa\u0159\u00ed\u017esk\u00e1 5, Praha",
        "opening_hours": "Mo-Fr 10:00-19:00; Sa 10:00-18:00; Su 12:00-18:00",
        "names": [
          "Saint Laurent",
          "Audemars Piguet"
        ]
      },
      "geometry": {
        "type": "Point",
        "coordinates": [
          14.4198658,
          50.0883233
        ]
      }
    },
    {
      "type": "Feature",
      "properties": {
        "weight": 1.0,
        "id": 3413996979,
        "hasDetails": true,
        "name": "Salvatore Ferragamo",
        "address": "Pa\u0159\u00ed\u017esk\u00e1 6, Praha",
        "opening_hours": "Mo-Sa 10:00-19:00; Su 11:00-18:00"
      },
      "geometry": {
        "type": "Point",
        "coordinates": [
          14.4201683,
          50.0885363
        ]
      }
    },
    {
      "type": "Feature",
      "properties": {
        "weight": 1.0,
        "id": 3413996980,
        "hasDetails": true,
        "name": "Halada",
        "address": "Pa\u0159\u00ed\u017esk\u00e1 7, Praha",
        "opening_hours": "Mo-Sa 10:00-19:00; Su 11:00-19:00"
      },
      "geometry": {
        "type": "Point",
        "coordinates": [
          14.4197867,
          50.0884782
        ]
      }
    },
    {
      "type": "Feature",
      "properties": {
        "weight": 1.0,
        "id": 3413996982,
        "hasDetails": true,
        "name": "Jimmy Choo",
        "address": "Pa\u0159\u00ed\u017esk\u00e1 7, Praha",
        "opening_hours": "Mo-Sa 10:00-19:00; Su 12:00-18:00"
      },
      "geometry": {
        "type": "Point",
        "coordinates": [
          14.4197008,
          50.0886013
        ]
      }
    },
    {
      "type": "Feature",
      "properties": {
        "weight": 1.0,
        "id": 3413996983,
        "hasDetails": true,
        "name": "Tiffany & Company",
        "address": "Pa\u0159\u00ed\u017esk\u00e1 10, Praha",
        "opening_hours": "Mo-Fr 10:30-19:00; Sa 10:30-18:00; Su 12:00-18:00",
        "names": [
          "Tiffany & Company",
          "Furla"
        ]
      },
      "geometry": {
        "type": "Point",
        "coordinates": [
          14.4199932,
          50.0888017
        ]
      }
    },
    {
      "type": "Feature",
      "properties": {
        "weight": 1.0,
        "id": 3413996984,
        "hasDetails": true,
        "name": "Herm\u00e8s",
        "address": "Pa\u0159\u00ed\u017esk\u00e1 12, Praha",
        "opening_hours": "Mo-Fr 10:00-19:00; Sa 10:00-18:00; Su 12:00-18:00"
      },
      "geometry": {
        "type": "Point",
        "coordinates": [
          14.4198336,
          50.0890676
        ]
      }
    },
    {
      "type": "Feature",
      "properties": {
        "weight": 1.0,
        "id": 3413996985,
        "hasDetails": true,
        "name": "Burberry",
        "address": "Pa\u0159\u00ed\u017esk\u00e1 11, Praha",
        "opening_hours": "Mo-Fr 10:00-19:00; Sa 10:00-18:00; Su 12:00-18:00"
      },
      "geometry": {
        "type": "Point",
        "coordinates": [
          14.4194541,
          50.0889786
        ]
      }
    },
    {
      "type": "Feature",
      "properties": {
        "weight": 1.0,
        "id": 3413996986,
        "hasDetails": true,
        "name": "Montblanc",
        "address": "Pa\u0159\u00ed\u017esk\u00e1 9, Praha",
        "names": [
          "Montblanc",
          "Patek Philippe"
        ]
      },
      "geometry": {
        "type": "Point",
        "coordinates": [
          14.4195131,
          50.0888955
        ]
      }
    },
    {
      "type": "Feature",
      "properties": {
        "weight": 1.0,
        "id": 3413996987,
        "hasDetails": true,
        "name": "Fendi",
        "address": "Pa\u0159\u00ed\u017esk\u00e1 12, Praha",
        "opening_hours": "Mo-Fr 10:00-19:00; Sa 10:00-18:00; Su 12:00-18:00",
        "names": [
          "Fendi",
          "Bottega Veneta"
        ]
      },
      "geometry": {
        "type": "Point",
        "coordinates": [
          14.4197384,
          50.0892027
        ]
      }
    },
    {
      "type": "Feature",
      "properties": {
        "weight": 1.0,
        "id": 3413996989,
        "hasDetails": true,
        "name": "Carollinum",
        "address": "Pa\u0159\u00ed\u017esk\u00e1 11, Praha",
        "opening_hours": "Mo-Fr 10:00-19:00; Sa 11:00-18:00; Su 12:00-18:00",
        "names": [
          "Carollinum",
          "Balenciaga"
        ]
      },
      "geometry": {
        "type": "Point",
        "coordinates": [
          14.419379,
          50.089102
        ]
      }
    },
    {
      "type": "Feature",
      "properties": {
        "weight": 1.0,
        "id": 3413996990,
        "hasDetails": true,
        "name": "Rolex",
        "address": "Pa\u0159\u00ed\u017esk\u00e1 14, Praha",
        "opening_hours": "Mo-Fr 10:00-19:00; Sa 11:00-18:00; Su 12:00-18:00"
      },
      "geometry": {
        "type": "Point",
        "coordinates": [
          14.4196378,
          50.0893576
        ]
      }
    },
    {
      "type": "Feature",
      "properties": {
        "weight": 1.0,
        "id": 3414032163,
        "hasDetails": true,
        "name": "Prada",
        "address": "Pa\u0159\u00ed\u017esk\u00e1 16, Praha",
        "opening_hours": "Mo-Fr 10:00-19:00; Sa 10:00-18:00; Su 12:00-18:00"
      },
      "geometry": {
        "type": "Point",
        "coordinates": [
          14.4194816,
          50.0896144
        ]
      }
    },
    {
      "type": "Feature",
      "properties": {
        "weight": 1.0,
        "id": 3414032168,
        "hasDetails": true,
        "name": "Zegna",
        "address": "Pa\u0159\u00ed\u017esk\u00e1 18, Praha",
        "opening_hours": "Mo-Fr 10:00-19:00; Sa 11:00-18:00",
        "names": [
          "Zegna",
          "Valentino"
        ]
      },
      "geometry": {
        "type": "Point",
        "coordinates": [
          14.4193347,
          50.0898213
        ]
      }
    },
    {
      "type": "Feature",
      "properties": {
        "weight": 1.0,
        "id": 3414032171,
        "hasDetails": true,
        "name": "Montblanc",
        "address": "Pa\u0159\u00ed\u017esk\u00e1 17, Praha",
        "opening_hours": "Mo-Fr 10:00-19:00; Sa 11:00-18:00; Su 12:00-18:00"
      },
      "geometry": {
        "type": "Point",
        "coordinates": [
          14.4188794,
          50.0898751
        ]
      }
    },
    {
      "type": "Feature",
      "properties": {
        "weight": 1.0,
        "id": 3414032173,
        "hasDetails": true,
        "name": "Moncler",
        "address": "Pa\u0159\u00ed\u017esk\u00e1 20, Praha",
        "opening_hours": "Mo-Fr 10:00-19:00; Su 12:00-18:00; Sa 10:00-18:00"
      },
      "geometry": {
        "type": "Point",
        "coordinates": [
          14.419211,
          50.0900292
        ]
      }
    },
    {
      "type": "Feature",
      "properties": {
        "weight": 1.0,
        "id": 3414032175,
        "hasDetails": true,
        "name": "Asoss",
        "address": "\u0160irok\u00e1 15, Praha",
        "opening_hours": "Mo-Fr 10:00-12:00,13:00-18:30; Sa 11:00-17:00"
      },
      "geometry": {
        "type": "Point",
        "coordinates": [
          14.4198356,
          50.0897065
        ]
      }
    },
    {
      "type": "Feature",
      "properties": {
        "weight": 1.0,
        "id": 3414032177,
        "hasDetails": true,
        "name": "Pinko",
        "address": "Pa\u0159\u00ed\u017esk\u00e1 24, Praha",
        "opening_hours": "Mo-Sa 10:00-19:00; Su 11:00-18:00"
      },
      "geometry": {
        "type": "Point",
        "coordinates": [
          14.4190685,
          50.0902288
        ]
      }
    },
    {
      "type": "Feature",
      "properties": {
        "weight": 1.0,
        "id": 3414032179,
        "hasDetails": true,
        "name": "DSquared2",
        "address": "Pa\u0159\u00ed\u017esk\u00e1 28, Praha",
        "opening_hours": "Mo-Fr 10:00-19:00; Sa 11:00-19:00; Su 12:00-18:00",
        "names": [
          "DSquared2",
          "Rimowa"
        ]
      },
      "geometry": {
        "type": "Point",
        "coordinates": [
          14.4188593,
          50.0905489
        ]
      }
    },
    {
      "type": "Feature",
      "properties": {
        "weight": 1.0,
        "id": 3414032180,
        "hasDetails": true,
        "name": "Dolce & Gabbana",
        "address": "Pa\u0159\u00ed\u017esk\u00e1 28, Praha",
        "opening_hours": "Mo-Sa 10:00-19:00; Su 11:00-18:00"
      },
      "geometry": {
        "type": "Point",
        "coordinates": [
          14.4187882,
          50.0906736
        ]
      }
    },
    {
      "type": "Feature",
      "properties": {
        "weight": 1.0,
        "id": 3414032181,
        "hasDetails": true,
        "name": "Gucci",
        "address": "Pa\u0159\u00ed\u017esk\u00e1 9, Praha",
        "opening_hours": "Mo-Fr 10:00-19:00; Sa 10:00-18:00; Su 12:00-18:00"
      },
      "geometry": {
        "type": "Point",
        "coordinates": [
          14.4195889,
          50.088754
        ]
      }
    },
    {
      "type": "Feature",
      "properties": {
        "weight": 1.0,
        "id": 3414032183,
        "hasDetails": true,
        "name": "The Brands",
        "address": "Pa\u0159\u00ed\u017esk\u00e1 17, Praha",
        "opening_hours": "Mo-Fr 10:00-19:00; Sa 11:00-19:00; Su 12:00-18:00"
      },
      "geometry": {
        "type": "Point",
        "coordinates": [
          14.41898,
          50.0897168
        ]
      }
    },
    {
      "type": "Feature",
      "properties": {
        "weight": 1.0,
        "id": 3414032184,
        "hasDetails": true,
        "name": "Brunello Cucinelli",
        "address": "Pa\u0159\u00ed\u017esk\u00e1 19, Praha",
        "opening_hours": "Mo-Sa 10:00-19:00; Su 11:00-18:00",
        "names": [
          "Brunello Cucinelli",
          "Hogan"
        ]
      },
      "geometry": {
        "type": "Point",
        "coordinates": [
          14.4183034,
          50.0907549
        ]
      }
    },
    {
      "type": "Feature",
      "properties": {
        "weight": 1.0,
        "id": 3414032185,
        "hasDetails": true,
        "name": "Jimmy Choo",
        "address": "Pa\u0159\u00ed\u017esk\u00e1 21, Praha",
        "opening_hours": "Mo-Fr 10:00-19:00; Sa 10:00-18:00; Su 12:00-18:00"
      },
      "geometry": {
        "type": "Point",
        "coordinates": [
          14.4182136,
          50.0909072
        ]
      }
    },
    {
      "type": "Feature",
      "properties": {
        "weight": 1.0,
        "id": 3414032188,
        "hasDetails": true,
        "name": "COS",
        "address": "Pa\u0159\u00ed\u017esk\u00e1 23, Praha",
        "opening_hours": "Mo-Sa 10:00-19:00; Su 11:00-18:00"
      },
      "geometry": {
        "type": "Point",
        "coordinates": [
          14.4180687,
          50.0911352
        ]
      }
    },
    {
      "type": "Feature",
      "properties": {
        "weight": 1.0,
        "id": 3467265670,
        "hasDetails": true,
        "name": "Masna na Koz\u00edm pl\u00e1cku",
        "address": "Koz\u00ed 914/9, Praha",
        "website": "http://www.masnanakozimplacku.cz/",
        "opening_hours": "Mo-Fr 07:00-18:00"
      },
      "geometry": {
        "type": "Point",
        "coordinates": [
          14.4224131,
          50.0905282
        ]
      }
    },
    {
      "type": "Feature",
      "properties": {
        "weight": 1.0,
        "id": 3467265672,
        "hasDetails": true,
        "name": "\u017dabka",
        "opening_hours": "Mo-Su 06:00-23:00; PH off"
      },
      "geometry": {
        "type": "Point",
        "coordinates": [
          14.423315,
          50.0907269
        ]
      }
    },
    {
      "type": "Feature",
      "properties": {
        "weight": 1.0,
        "id": 3467465879,
        "hasDetails": true,
        "name": "Manni Mini Market",
        "address": "Opletalova 5, Praha",
        "opening_hours": "24/7"
      },
      "geometry": {
        "type": "Point",
        "coordinates": [
          14.4295475,
          50.0813538
        ]
      }
    },
    {
      "type": "Feature",
      "properties": {
        "weight": 1.0,
        "id": 3468990214,
        "hasDetails": true,
        "name": "M & K Galerie",
        "address": "V\u00e1clavsk\u00e9 n\u00e1m\u011bst\u00ed 19, Praha",
        "names": [
          "M & K Galerie",
          "H&M"
        ]
      },
      "geometry": {
        "type": "Point",
        "coordinates": [
          14.4261479,
          50.0828408
        ]
      }
    },
    {
      "type": "Feature",
      "properties": {
        "weight": 1.0,
        "id": 3469009762,
        "hasDetails": true,
        "name": "Koruna Palace",
        "address": "V\u00e1clavsk\u00e9 n\u00e1m\u011bst\u00ed 1, Praha",
        "website": "https://koruna-palace.cz/"
      },
      "geometry": {
        "type": "Point",
        "coordinates": [
          14.4242945,
          50.0842754
        ]
      }
    },
    {
      "type": "Feature",
      "properties": {
        "weight": 1.0,
        "id": 3469009763,
        "hasDetails": true,
        "name": "New Yorker",
        "address": "Na Pr\u00edkope 1, Praha",
        "website": "https://www.newyorker.de/cz/",
        "opening_hours": "Mo-Su 09:00-21:00"
      },
      "geometry": {
        "type": "Point",
        "coordinates": [
          14.4234322,
          50.0843468
        ]
      }
    },
    {
      "type": "Feature",
      "properties": {
        "weight": 1.0,
        "id": 3469009764,
        "hasDetails": true,
        "name": "Desigual",
        "opening_hours": "Mo-Su 09:00-21:00"
      },
      "geometry": {
        "type": "Point",
        "coordinates": [
          14.4240239,
          50.0842926
        ]
      }
    },