{
  "type": "FeatureCollection",
  "features": [
    {
      "type": "Feature",
      "properties": {
        "id": 28587502,
        "name": "Hora\u017e\u010fovsk\u00e1 kaple",
        "weight": 1.0
      },
      "geometry": {
        "type": "Point",
        "coordinates": [
          14.5129548,
          50.1182594
        ]
      }
    },
    {
      "type": "Feature",
      "properties": {
        "id": 90245339,
        "name": "Pam\u00e1tn\u00edk trolejbusov\u00e9 dopravy na Hanspaulce",
        "weight": 1.0
      },
      "geometry": {
        "type": "Point",
        "coordinates": [
          14.378744,
          50.1109794
        ]
      }
    },
    {
      "type": "Feature",
      "properties": {
        "id": 171332743,
        "weight": 1.0
      },
      "geometry": {
        "type": "Point",
        "coordinates": [
          14.5739836,
          50.1260734
        ]
      }
    },
    {
      "type": "Feature",
      "properties": {
        "id": 175652785,
        "name": "Jen\u00edkovsk\u00e1 kaple",
        "weight": 1.0
      },
      "geometry": {
        "type": "Point",
        "coordinates": [
          14.5188037,
          50.1229653
        ]
      }
    },
    {
      "type": "Feature",
      "properties": {
        "id": 282841402,
        "name": "Vzdor",
        "weight": 1.0
      },
      "geometry": {
        "type": "Point",
        "coordinates": [
          14.4635791,
          50.1319237
        ]
      }
    },
    {
      "type": "Feature",
      "properties": {
        "id": 283039969,
        "name": "Emil Z\u00e1topek",
        "weight": 1.0
      },
      "geometry": {
        "type": "Point",
        "coordinates": [
          14.4959525,
          50.0991203
        ]
      }
    },
    {
      "type": "Feature",
      "properties": {
        "id": 283621785,
        "name": "Mikol\u00e1\u0161 Ale\u0161",
        "weight": 1.0
      },
      "geometry": {
        "type": "Point",
        "coordinates": [
          14.4466098,
          50.0241529
        ]
      }
    },
    {
      "type": "Feature",
      "properties": {
        "id": 286327380,
        "name": "menhir Zkamen\u011bl\u00fd slouha",
        "weight": 1.0
      },
      "geometry": {
        "type": "Point",
        "coordinates": [
          14.451847,
          50.1431696
        ]
      }
    },
    {
      "type": "Feature",
      "properties": {
        "id": 290635911,
        "name": "Prvn\u00ed rozhlasov\u00e9 vysil\u00e1n\u00ed",
        "weight": 1.0
      },
      "geometry": {
        "type": "Point",
        "coordinates": [
          14.5258296,
          50.1216379
        ]
      }
    },
    {
      "type": "Feature",
      "properties": {
        "id": 300519495,
        "name": "Franz Kafka",
        "weight": 1.0
      },
      "geometry": {
        "type": "Point",
        "coordinates": [
          14.4192196,
          50.0878913
        ]
      }
    },
    {
      "type": "Feature",
      "properties": {
        "id": 302839135,
        "name": "Jaroslav Vrchlick\u00fd",
        "weight": 1.0
      },
      "geometry": {
        "type": "Point",
        "coordinates": [
          14.3966236,
          50.0850609
        ]
      }
    },
    {
      "type": "Feature",
      "properties": {
        "id": 306363330,
        "name": "br\u00e1na Star\u00fd a Nov\u00fd z\u00e1kon",
        "weight": 1.0
      },
      "geometry": {
        "type": "Point",
        "coordinates": [
          14.423099,
          50.0822884
        ]
      }
    },
    {
      "type": "Feature",
      "properties": {
        "id": 309259467,
        "name": "T. G. Masaryk",
        "weight": 1.0
      },
      "geometry": {
        "type": "Point",
        "coordinates": [
          14.657085,
          49.9917965
        ]
      }
    },
    {
      "type": "Feature",
      "properties": {
        "id": 310477881,
        "name": "Pam\u00e1tn\u00edk bitvy na B\u00edl\u00e9 ho\u0159e",
        "weight": 1.0
      },
      "geometry": {
        "type": "Point",
        "coordinates": [
          14.3192454,
          50.078216
        ]
      }
    },
    {
      "type": "Feature",
      "properties": {
        "id": 310583644,
        "name": "Jan Masaryk",
        "weight": 1.0
      },
      "geometry": {
        "type": "Point",
        "coordinates": [
          14.4378967,
          50.0712407
        ]
      }
    },
    {
      "type": "Feature",
      "properties": {
        "id": 314887423,
        "name": "Sim\u00f3n Bol\u00edvar",
        "weight": 1.0
      },
      "geometry": {
        "type": "Point",
        "coordinates": [
          14.3987198,
          50.1068731
        ]
      }
    },
    {
      "type": "Feature",
      "properties": {
        "id": 317860463,
        "name": "Franti\u0161ek Langer",
        "weight": 1.0
      },
      "geometry": {
        "type": "Point",
        "coordinates": [
          14.4066255,
          50.0730264
        ]
      }
    },
    {
      "type": "Feature",
      "properties": {
        "id": 330617909,
        "name": "Tom\u00e1\u0161 Garrigue Masaryk",
        "weight": 1.0
      },
      "geometry": {
        "type": "Point",
        "coordinates": [
          14.3979316,
          50.089487
        ]
      }
    },
    {
      "type": "Feature",
      "properties": {
        "id": 330632529,
        "name": "Alois Jir\u00e1sek",
        "weight": 1.0
      },
      "geometry": {
        "type": "Point",
        "coordinates": [
          14.4143361,
          50.0759207
        ]
      }
    },
    {
      "type": "Feature",
      "properties": {
        "id": 330642991,
        "name": "Jakub Arbes",
        "weight": 1.0
      },
      "geometry": {
        "type": "Point",
        "coordinates": [
          14.4053197,
          50.0764505
        ]
      }
    },
    {
      "type": "Feature",
      "properties": {
        "id": 330650604,
        "name": "Karel Hynek M\u00e1cha",
        "weight": 1.0
      },
      "geometry": {
        "type": "Point",
        "coordinates": [
          14.4019275,
          50.0816021
        ]
      }
    },
    {
      "type": "Feature",
      "properties": {
        "id": 330650606,
        "name": "V\u00edt\u011bzslav Nov\u00e1k",
        "weight": 1.0
      },
      "geometry": {
        "type": "Point",
        "coordinates": [
          14.4014917,
          50.0821284
        ]
      }
    },
    {
      "type": "Feature",
      "properties": {
        "id": 330656598,
        "name": "Johannes Kepler a Tycho Brahe",
        "weight": 1.0
      },
      "geometry": {
        "type": "Point",
        "coordinates": [
          14.387911,
          50.0879821
        ]
      }
    },
    {
      "type": "Feature",
      "properties": {
        "id": 331441542,
        "name": "Rab\u00edndran\u00e1th Th\u00e1kur",
        "weight": 1.0
      },
      "geometry": {
        "type": "Point",
        "coordinates": [
          14.3874695,
          50.1006744
        ]
      }
    },
    {
      "type": "Feature",
      "properties": {
        "id": 331441566,
        "name": "Ladislav Vertat",
        "weight": 1.0
      },
      "geometry": {
        "type": "Point",
        "coordinates": [
          14.392261,
          50.1046352
        ]
      }
    },
    {
      "type": "Feature",
      "properties": {
        "id": 331442512,
        "name": "Jan Vani\u0161",
        "weight": 1.0
      },
      "geometry": {
        "type": "Point",
        "coordinates": [
          14.3795507,
          50.1073524
        ]
      }
    },
    {
      "type": "Feature",
      "properties": {
        "id": 331950055,
        "name": "Franti\u0161ek Kollman",
        "weight": 1.0
      },
      "geometry": {
        "type": "Point",
        "coordinates": [
          14.3976506,
          50.1033746
        ]
      }
    },
    {
      "type": "Feature",
      "properties": {
        "id": 331954740,
        "name": "Anton\u00edn Dvo\u0159\u00e1k",
        "weight": 1.0
      },
      "geometry": {
        "type": "Point",
        "coordinates": [
          14.4151737,
          50.0892384
        ]
      }
    },
    {
      "type": "Feature",
      "properties": {
        "id": 331954741,
        "name": "Josef M\u00e1nes",
        "weight": 1.0
      },
      "geometry": {
        "type": "Point",
        "coordinates": [
          14.4145015,
          50.0897553
        ]
      }
    },
    {
      "type": "Feature",
      "properties": {
        "id": 331955783,
        "name": "Jan Kot\u011bra",
        "weight": 1.0
      },
      "geometry": {
        "type": "Point",
        "coordinates": [
          14.4147113,
          50.0887259
        ]
      }
    },
    {
      "type": "Feature",
      "properties": {
        "id": 331960354,
        "name": "Eli\u0161ka Kr\u00e1snohorsk\u00e1",
        "weight": 1.0
      },
      "geometry": {
        "type": "Point",
        "coordinates": [
          14.4197008,
          50.076088
        ]
      }
    },
    {
      "type": "Feature",
      "properties": {
        "id": 331960843,
        "name": "Josef Balab\u00e1n",
        "weight": 1.0
      },
      "geometry": {
        "type": "Point",
        "coordinates": [
          14.3889307,
          50.1004723
        ]
      }
    },
    {
      "type": "Feature",
      "properties": {
        "id": 332029611,
        "weight": 1.0
      },
      "geometry": {
        "type": "Point",
        "coordinates": [
          14.3918554,
          50.101435
        ]
      }
    },
    {
      "type": "Feature",
      "properties": {
        "id": 332036148,
        "name": "Vojt\u011bch M\u011bstek",
        "weight": 1.0
      },
      "geometry": {
        "type": "Point",
        "coordinates": [
          14.3874264,
          50.1027244
        ]
      }
    },
    {
      "type": "Feature",
      "properties": {
        "id": 332036189,
        "name": "nezn\u00e1m\u00fd hrdina a Na\u010fa F\u00e1borsk\u00e1",
        "weight": 1.0
      },
      "geometry": {
        "type": "Point",
        "coordinates": [
          14.3841862,
          50.1104239
        ]
      }
    },
    {
      "type": "Feature",
      "properties": {
        "id": 332224374,
        "name": "Vlasta Burian",
        "weight": 1.0
      },
      "geometry": {
        "type": "Point",
        "coordinates": [
          14.3855131,
          50.1050851
        ]
      }
    },
    {
      "type": "Feature",
      "properties": {
        "id": 332431322,
        "name": "Pomn\u00edk ob\u011btem komunismu",
        "weight": 1.0
      },
      "geometry": {
        "type": "Point",
        "coordinates": [
          14.4039752,
          50.0811573
        ]
      }
    },
    {
      "type": "Feature",
      "properties": {
        "id": 332449958,
        "name": "Jan Neruda",
        "weight": 1.0
      },
      "geometry": {
        "type": "Point",
        "coordinates": [
          14.4022562,
          50.0829677
        ]
      }
    },
    {
      "type": "Feature",
      "properties": {
        "id": 332449996,
        "name": "Ferdinand Laub",
        "weight": 1.0
      },
      "geometry": {
        "type": "Point",
        "coordinates": [
          14.4006226,
          50.0826654
        ]
      }
    },
    {
      "type": "Feature",
      "properties": {
        "id": 332450267,
        "weight": 1.0
      },
      "geometry": {
        "type": "Point",
        "coordinates": [
          14.3872962,
          50.0854787
        ]
      }
    },
    {
      "type": "Feature",
      "properties": {
        "id": 332450275,
        "name": "Jan \u017di\u017eka",
        "weight": 1.0
      },
      "geometry": {
        "type": "Point",
        "coordinates": [
          14.3819576,
          50.086
        ]
      }
    },
    {
      "type": "Feature",
      "properties": {
        "id": 332450276,
        "name": "sov\u011btsk\u00fd voj\u00edn; nezn\u00e1m\u00fd voj\u00edn; Jan Krasanovsk\u00fd; Franti\u0161ek \u0160aparatka; Josef Les\u00e1k",
        "weight": 1.0
      },
      "geometry": {
        "type": "Point",
        "coordinates": [
          14.3817836,
          50.0865595
        ]
      }
    },
    {
      "type": "Feature",
      "properties": {
        "id": 332450277,
        "name": "Alois K\u0159\u00ed\u017e; Jaroslav Mra\u010dno",
        "weight": 1.0
      },
      "geometry": {
        "type": "Point",
        "coordinates": [
          14.3817088,
          50.0873338
        ]
      }
    },
    {
      "type": "Feature",
      "properties": {
        "id": 333347638,
        "name": "Ferenc Liszt",
        "weight": 1.0
      },
      "geometry": {
        "type": "Point",
        "coordinates": [
          14.4200918,
          50.0834035
        ]
      }
    },
    {
      "type": "Feature",
      "properties": {
        "id": 334496933,
        "name": "Petr a Zden\u011bk Unterviler",
        "weight": 1.0
      },
      "geometry": {
        "type": "Point",
        "coordinates": [
          14.3878165,
          50.1022912
        ]
      }
    },
    {
      "type": "Feature",
      "properties": {
        "id": 343525944,
        "name": "Jarom\u00edr Kapal\u00edn",
        "weight": 1.0
      },
      "geometry": {
        "type": "Point",
        "coordinates": [
          14.3827524,
          50.1052373
        ]
      }
    },
    {
      "type": "Feature",
      "properties": {
        "id": 350561174,
        "name": "Pam\u00e1tn\u00edk para\u0161utist\u016fm \u010ceskoslovensk\u00e9 arm\u00e1dy",
        "weight": 1.0
      },
      "geometry": {
        "type": "Point",
        "coordinates": [
          14.3909356,
          50.1030359
        ]
      }
    },
    {
      "type": "Feature",
      "properties": {
        "id": 354684455,
        "name": "Pam\u00e1tn\u00edk ob\u011bt\u00ed a v\u00edt\u011bz\u016f druh\u00e9ho odboje",
        "weight": 1.0
      },
      "geometry": {
        "type": "Point",
        "coordinates": [
          14.4109243,
          50.0902385
        ]
      }
    },
    {
      "type": "Feature",
      "properties": {
        "id": 354684523,
        "name": "Moj\u017e\u00ed\u0161",
        "weight": 1.0
      },
      "geometry": {
        "type": "Point",
        "coordinates": [
          14.4185771,
          50.0903097
        ]
      }
    },
    {
      "type": "Feature",
      "properties": {
        "id": 354991318,
        "name": "Nezn\u00e1m\u00fd hrdina",
        "weight": 1.0
      },
      "geometry": {
        "type": "Point",
        "coordinates": [
          14.3980464,
          50.0938175
        ]
      }
    },
    {
      "type": "Feature",
      "properties": {
        "id": 355003397,
        "weight": 1.0
      },
      "geometry": {
        "type": "Point",
        "coordinates": [
          14.4158515,
          50.0756332
        ]
      }
    },
    {
      "type": "Feature",
      "properties": {
        "id": 355008180,
        "name": "N\u00e1rodn\u00edm mstitel\u016fm",
        "weight": 1.0
      },
      "geometry": {
        "type": "Point",
        "coordinates": [
          14.4168864,
          50.0758756
        ]
      }
    },
    {
      "type": "Feature",
      "properties": {
        "id": 355282184,
        "name": "Franti\u0161ek B\u011bhounek",
        "weight": 1.0
      },
      "geometry": {
        "type": "Point",
        "coordinates": [
          14.3822453,
          50.0864583
        ]
      }
    },
    {
      "type": "Feature",
      "properties": {
        "id": 355303500,
        "name": "Julius Zeyer",
        "weight": 1.0
      },
      "geometry": {
        "type": "Point",
        "coordinates": [
          14.4078046,
          50.0938101
        ]
      }
    },
    {
      "type": "Feature",
      "properties": {
        "id": 355737381,
        "name": "Pam\u011btn\u00ed deska ob\u011btem mu\u010den\u00ed",
        "weight": 1.0
      },
      "geometry": {
        "type": "Point",
        "coordinates": [
          14.431555,
          50.0812821
        ]
      }
    },
    {
      "type": "Feature",
      "properties": {
        "id": 358463634,
        "name": "St\u0159e\u0161ovice sv\u00fdm padl\u00fdm 1914-1918",
        "weight": 1.0
      },
      "geometry": {
        "type": "Point",
        "coordinates": [
          14.3809448,
          50.0940202
        ]
      }
    },
    {
      "type": "Feature",
      "properties": {
        "id": 360039762,
        "weight": 1.0
      },
      "geometry": {
        "type": "Point",
        "coordinates": [
          14.3760218,
          50.0972005
        ]
      }
    },
    {
      "type": "Feature",
      "properties": {
        "id": 369853283,
        "name": "svat\u00fd V\u00e1clav",
        "weight": 1.0
      },
      "geometry": {
        "type": "Point",
        "coordinates": [
          14.3108947,
          50.1144479
        ]
      }
    },
    {
      "type": "Feature",
      "properties": {
        "id": 370273700,
        "name": "Zvoni\u010dka",
        "weight": 1.0
      },
      "geometry": {
        "type": "Point",
        "coordinates": [
          14.3497623,
          50.0927253
        ]
      }
    },
    {
      "type": "Feature",
      "properties": {
        "id": 370443218,
        "name": "Panna Marie z exilu",
        "weight": 1.0
      },
      "geometry": {
        "type": "Point",
        "coordinates": [
          14.3909404,
          50.0856078
        ]
      }
    },
    {
      "type": "Feature",
      "properties": {
        "id": 370559037,
        "name": "Van\u00ed\u010dk\u016fv pomn\u00ed\u010dek",
        "weight": 1.0
      },
      "geometry": {
        "type": "Point",
        "coordinates": [
          14.3048897,
          50.0992817
        ]
      }
    },
    {
      "type": "Feature",
      "properties": {
        "id": 382580008,
        "name": "Pam\u00e1tn\u00edk ob\u011btem dopravn\u00edch nehod",
        "weight": 1.0
      },
      "geometry": {
        "type": "Point",
        "coordinates": [
          14.4901585,
          50.0367431
        ]
      }
    },
    {
      "type": "Feature",
      "properties": {
        "id": 390278814,
        "name": "z\u00e1klady kn\u00ed\u017eec\u00ed akropole",
        "weight": 1.0
      },
      "geometry": {
        "type": "Point",
        "coordinates": [
          14.4169013,
          50.0634715
        ]
      }
    },
    {
      "type": "Feature",
      "properties": {
        "id": 390278815,
        "name": "z\u00e1klady kn\u00ed\u017eec\u00ed akropole",
        "weight": 1.0
      },
      "geometry": {
        "type": "Point",
        "coordinates": [
          14.4171276,
          50.0640623
        ]
      }
    },
    {
      "type": "Feature",
      "properties": {
        "id": 390380788,
        "name": "Vladim\u00edr Krajina",
        "weight": 1.0
      },
      "geometry": {
        "type": "Point",
        "coordinates": [
          14.4209716,
          50.0711071
        ]
      }
    },
    {
      "type": "Feature",
      "properties": {
        "id": 392747154,
        "weight": 1.0
      },
      "geometry": {
        "type": "Point",
        "coordinates": [
          14.2622079,
          50.1539149
        ]
      }
    },
    {
      "type": "Feature",
      "properties": {
        "id": 392766418,
        "weight": 1.0
      },
      "geometry": {
        "type": "Point",
        "coordinates": [
          14.2489255,
          50.1557992
        ]
      }
    },
    {
      "type": "Feature",
      "properties": {
        "id": 402932279,
        "name": "svat\u00fd Jan Nepomuck\u00fd",
        "weight": 1.0
      },
      "geometry": {
        "type": "Point",
        "coordinates": [
          14.3972877,
          50.0879997
        ]
      }
    },
    {
      "type": "Feature",
      "properties": {
        "id": 415634513,
        "name": "svat\u00fd Josef",
        "weight": 1.0
      },
      "geometry": {
        "type": "Point",
        "coordinates": [
          14.4209779,
          50.077911
        ]
      }
    },
    {
      "type": "Feature",
      "properties": {
        "id": 415634514,
        "name": "V\u00edt\u011bzslav H\u00e1lek",
        "weight": 1.0
      },
      "geometry": {
        "type": "Point",
        "coordinates": [
          14.4204418,
          50.0778152
        ]
      }
    },
    {
      "type": "Feature",
      "properties": {
        "id": 423359429,
        "name": "Rud\u00e1 arm\u00e1da",
        "weight": 1.0
      },
      "geometry": {
        "type": "Point",
        "coordinates": [
          14.4340487,
          50.1277118
        ]
      }
    },
    {
      "type": "Feature",
      "properties": {
        "id": 429956484,
        "name": "velitelstv\u00ed Sov\u011btsk\u00e9 arm\u00e1dy",
        "weight": 1.0
      },
      "geometry": {
        "type": "Point",
        "coordinates": [
          14.413577,
          50.0844214
        ]
      }
    },
    {
      "type": "Feature",
      "properties": {
        "id": 430073894,
        "name": "pomn\u00edk",
        "weight": 1.0
      },
      "geometry": {
        "type": "Point",
        "coordinates": [
          14.7177564,
          50.0120443
        ]
      }
    },
    {
      "type": "Feature",
      "properties": {
        "id": 447726275,
        "weight": 1.0
      },
      "geometry": {
        "type": "Point",
        "coordinates": [
          14.4455846,
          50.1462531
        ]
      }
    },
    {
      "type": "Feature",
      "properties": {
        "id": 482486757,
        "name": "Pavel A. Kopeck\u00fd",
        "weight": 1.0,
        "names": [
          "Pavel A. Kopeck\u00fd",
          "Felicie Str\u00e1nsk\u00e1 roz. Schleissner",
          "Franti\u0161ka Schleissnerov\u00e1",
          "Kity Kopeck\u00e1",
          "Mariana Kopeck\u00e1",
          "Vil\u00e9m Str\u00e1nsk\u00fd",
          "Zuzana Kopeck\u00e1"
        ]
      },
      "geometry": {
        "type": "Point",
        "coordinates": [
          14.429894,
          50.0823174
        ]
      }
    },
    {
      "type": "Feature",
      "properties": {
        "id": 540865934,
        "name": "Operace Anthropoid",
        "weight": 1.0
      },
      "geometry": {
        "type": "Point",
        "coordinates": [
          14.4651839,
          50.1178412
        ]
      }
    },
    {
      "type": "Feature",
      "properties": {
        "id": 626587705,
        "name": "Franti\u0161ek Stupka",
        "weight": 1.0
      },
      "geometry": {
        "type": "Point",
        "coordinates": [
          14.4467707,
          50.101959
        ]
      }
    },
    {
      "type": "Feature",
      "properties": {
        "id": 637801163,
        "name": "Jan Roh\u00e1\u010d z Dub\u00e9",
        "weight": 1.0
      },
      "geometry": {
        "type": "Point",
        "coordinates": [
          14.3362856,
          50.0845911
        ]
      }
    },
    {
      "type": "Feature",
      "properties": {
        "id": 660103120,
        "name": "\u010cert\u016fv sloup",
        "weight": 1.0
      },
      "geometry": {
        "type": "Point",
        "coordinates": [
          14.4191425,
          50.0643113
        ]
      }
    },
    {
      "type": "Feature",
      "properties": {
        "id": 660103145,
        "weight": 1.0
      },
      "geometry": {
        "type": "Point",
        "coordinates": [
          14.4215834,
          50.0640094
        ]
      }
    },
    {
      "type": "Feature",
      "properties": {
        "id": 660103146,
        "name": "St\u011bt\u00ed svat\u00e9ho Jana K\u0159titele",
        "weight": 1.0
      },
      "geometry": {
        "type": "Point",
        "coordinates": [
          14.4217963,
          50.0642242
        ]
      }
    },
    {
      "type": "Feature",
      "properties": {
        "id": 678180090,
        "name": "Komensk\u00fd se lou\u010d\u00ed s vlast\u00ed",
        "weight": 1.0
      },
      "geometry": {
        "type": "Point",
        "coordinates": [
          14.4086596,
          50.0951086
        ]
      }
    },
    {
      "type": "Feature",
      "properties": {
        "id": 696828123,
        "name": "Ji\u0159\u00ed Wolker",
        "weight": 1.0
      },
      "geometry": {
        "type": "Point",
        "coordinates": [
          14.4945128,
          50.1234523
        ]
      }
    },
    {
      "type": "Feature",
      "properties": {
        "id": 717561028,
        "name": "Diana",
        "weight": 1.0
      },
      "geometry": {
        "type": "Point",
        "coordinates": [
          14.3564317,
          50.063491
        ]
      }
    },
    {
      "type": "Feature",
      "properties": {
        "id": 717561057,
        "name": "Socha Dia (Zeus)",
        "weight": 1.0
      },
      "geometry": {
        "type": "Point",
        "coordinates": [
          14.3534181,
          50.0661727
        ]
      }
    },
    {
      "type": "Feature",
      "properties": {
        "id": 731238009,
        "name": "Na Kalv\u00e1rii",
        "weight": 1.0
      },
      "geometry": {
        "type": "Point",
        "coordinates": [
          14.3276447,
          50.0660338
        ]
      }
    },
    {
      "type": "Feature",
      "properties": {
        "id": 735936436,
        "weight": 1.0
      },
      "geometry": {
        "type": "Point",
        "coordinates": [
          14.3156725,
          50.103803
        ]
      }
    },
    {
      "type": "Feature",
      "properties": {
        "id": 736063056,
        "weight": 1.0
      },
      "geometry": {
        "type": "Point",
        "coordinates": [
          14.4629368,
          50.1195634
        ]
      }
    },
    {
      "type": "Feature",
      "properties": {
        "id": 747560174,
        "weight": 1.0
      },
      "geometry": {
        "type": "Point",
        "coordinates": [
          14.6151033,
          50.0813017
        ]
      }
    },
    {
      "type": "Feature",
      "properties": {
        "id": 748206638,
        "weight": 1.0
      },
      "geometry": {
        "type": "Point",
        "coordinates": [
          14.6144574,
          50.0811735
        ]
      }
    },
    {
      "type": "Feature",
      "properties": {
        "id": 748685734,
        "weight": 1.0
      },
      "geometry": {
        "type": "Point",
        "coordinates": [
          14.6218981,
          50.0806247
        ]
      }
    },
    {
      "type": "Feature",
      "properties": {
        "id": 770089361,
        "weight": 1.0
      },
      "geometry": {
        "type": "Point",
        "coordinates": [
          14.3225918,
          50.1021419
        ]
      }
    },
    {
      "type": "Feature",
      "properties": {
        "id": 778231463,
        "name": "Pomn\u00edk padl\u00fdm v 1. sv\u011btov\u00e9 v\u00e1lce",
        "weight": 1.0
      },
      "geometry": {
        "type": "Point",
        "coordinates": [
          14.446205,
          50.0296314
        ]
      }
    },
    {
      "type": "Feature",
      "properties": {
        "id": 778231490,
        "name": "Padl\u00fd hrdina V\u00e1clav Veverka",
        "weight": 1.0
      },
      "geometry": {
        "type": "Point",
        "coordinates": [
          14.4429579,
          50.0272824
        ]
      }
    },
    {
      "type": "Feature",
      "properties": {
        "id": 797669689,
        "name": "H\u00e1lk\u016fv pomn\u00edk",
        "weight": 1.0
      },
      "geometry": {
        "type": "Point",
        "coordinates": [
          14.4083485,
          49.9669247
        ]
      }
    },
    {
      "type": "Feature",
      "properties": {
        "id": 800449575,
        "name": "Pam\u00e1tn\u00edk padl\u00fdm 1914-1918",
        "weight": 1.0
      },
      "geometry": {
        "type": "Point",
        "coordinates": [
          14.6080326,
          50.1052754
        ]
      }
    },
    {
      "type": "Feature",
      "properties": {
        "id": 822914573,
        "weight": 1.0
      },
      "geometry": {
        "type": "Point",
        "coordinates": [
          14.560851,
          50.0018356
        ]
      }
    },
    {
      "type": "Feature",
      "properties": {
        "id": 860222278,
        "weight": 1.0
      },
      "geometry": {
        "type": "Point",
        "coordinates": [
          14.3614864,
          49.9826466
        ]
      }
    },
    {
      "type": "Feature",
      "properties": {
        "id": 860222283,
        "name": "Vladislav Van\u010dura",
        "weight": 1.0
      },
      "geometry": {
        "type": "Point",
        "coordinates": [
          14.39135,
          49.9752607
        ]
      }
    },
    {
      "type": "Feature",
      "properties": {
        "id": 861578518,
        "weight": 1.0
      },
      "geometry": {
        "type": "Point",
        "coordinates": [
          14.3531271,
          49.9835208
        ]
      }
    },
    {
      "type": "Feature",
      "properties": {
        "id": 864968878,
        "name": "sv. Don\u00e1t z Arezza",
        "weight": 1.0
      },
      "geometry": {
        "type": "Point",
        "coordinates": [
          14.6347713,
          50.0119813
        ]
      }
    },
    {
      "type": "Feature",
      "properties": {
        "id": 896329935,
        "weight": 1.0
      },
      "geometry": {
        "type": "Point",
        "coordinates": [
          14.717704,
          49.9517928
        ]
      }
    },
    {
      "type": "Feature",
      "properties": {
        "id": 907203650,
        "weight": 1.0
      },
      "geometry": {
        "type": "Point",
        "coordinates": [
          14.4634558,
          49.9390474
        ]
      }
    },
    {
      "type": "Feature",
      "properties": {
        "id": 910347084,
        "name": "Flora",
        "weight": 1.0
      },
      "geometry": {
        "type": "Point",
        "coordinates": [
          14.4001024,
          50.0649083
        ]
      }
    },
    {
      "type": "Feature",
      "properties": {
        "id": 928588865,
        "name": "Pomn\u00edk \u010desk\u00e9 st\u00e1tnosti",
        "weight": 1.0
      },
      "geometry": {
        "type": "Point",
        "coordinates": [
          14.4528214,
          49.9631645
        ]
      }
    },
    {
      "type": "Feature",
      "properties": {
        "id": 928636059,
        "weight": 1.0
      },
      "geometry": {
        "type": "Point",
        "coordinates": [
          14.4519289,
          49.9813615
        ]
      }
    },
    {
      "type": "Feature",
      "properties": {
        "id": 937617294,
        "name": "svat\u00fd Jan Nepomuck\u00fd",
        "weight": 1.0
      },
      "geometry": {
        "type": "Point",
        "coordinates": [
          14.35297,
          50.0674421
        ]
      }
    },
    {
      "type": "Feature",
      "properties": {
        "id": 963907924,
        "name": "z\u0159\u00edcenina hr\u00e1dku Karl\u00edk",
        "weight": 1.0
      },
      "geometry": {
        "type": "Point",
        "coordinates": [
          14.2549099,
          49.9447338
        ]
      }
    },
    {
      "type": "Feature",
      "properties": {
        "id": 963907928,
        "weight": 1.0
      },
      "geometry": {
        "type": "Point",
        "coordinates": [
          14.2933569,
          49.9624851
        ]
      }
    },
    {
      "type": "Feature",
      "properties": {
        "id": 987903897,
        "weight": 1.0
      },
      "geometry": {
        "type": "Point",
        "coordinates": [
          14.5237329,
          50.0466098
        ]
      }
    },
    {
      "type": "Feature",
      "properties": {
        "id": 988678084,
        "name": "Jan Bouchal",
        "weight": 1.0
      },
      "geometry": {
        "type": "Point",
        "coordinates": [
          14.432387,
          50.096703
        ]
      }
    },
    {
      "type": "Feature",
      "properties": {
        "id": 1011750546,
        "name": "Sbrat\u0159en\u00ed",
        "weight": 1.0
      },
      "geometry": {
        "type": "Point",
        "coordinates": [
          14.43517,
          50.0854864
        ]
      }
    },
    {
      "type": "Feature",
      "properties": {
        "id": 1024976122,
        "name": "Pam\u00e1tn\u00edk ob\u011bt\u00ed 2. sv\u011btov\u00e9 v\u00e1lky",
        "weight": 1.0
      },
      "geometry": {
        "type": "Point",
        "coordinates": [
          14.5137715,
          50.0262292
        ]
      }
    },
    {
      "type": "Feature",
      "properties": {
        "id": 1128016981,
        "weight": 1.0
      },
      "geometry": {
        "type": "Point",
        "coordinates": [
          14.3577002,
          49.9834998
        ]
      }
    },
    {
      "type": "Feature",
      "properties": {
        "id": 1143022425,
        "weight": 1.0
      },
      "geometry": {
        "type": "Point",
        "coordinates": [
          14.5987025,
          50.0771673
        ]
      }
    },
    {
      "type": "Feature",
      "properties": {
        "id": 1157990805,
        "name": "Taras Hryhorovy\u010d \u0160ev\u010denko",
        "weight": 1.0
      },
      "geometry": {
        "type": "Point",
        "coordinates": [
          14.4044637,
          50.0784446
        ]
      }
    },
    {
      "type": "Feature",
      "properties": {
        "id": 1181364199,
        "name": "Lev",
        "weight": 1.0
      },
      "geometry": {
        "type": "Point",
        "coordinates": [
          14.3154808,
          50.0351453
        ]
      }
    },
    {
      "type": "Feature",
      "properties": {
        "id": 1185977755,
        "name": "Libu\u0161ina l\u00e1ze\u0148",
        "weight": 1.0
      },
      "geometry": {
        "type": "Point",
        "coordinates": [
          14.4160742,
          50.0634359
        ]
      }
    },
    {
      "type": "Feature",
      "properties": {
        "id": 1186903145,
        "name": "Karel a Josef \u010capek",
        "weight": 1.0
      },
      "geometry": {
        "type": "Point",
        "coordinates": [
          14.4364538,
          50.0757202
        ]
      }
    },
    {
      "type": "Feature",
      "properties": {
        "id": 1198450876,
        "name": "Pomn\u00edk padl\u00fdch z 1. sv\u011btov\u00e9 v\u00e1lky",
        "weight": 1.0
      },
      "geometry": {
        "type": "Point",
        "coordinates": [
          14.506204,
          50.0320783
        ]
      }
    },
    {
      "type": "Feature",
      "properties": {
        "id": 1200188373,
        "name": "Josef V\u00e1clav Sl\u00e1dek",
        "weight": 1.0
      },
      "geometry": {
        "type": "Point",
        "coordinates": [
          14.4171282,
          50.0750998
        ]
      }
    },
    {
      "type": "Feature",
      "properties": {
        "id": 1200250404,
        "name": "Franz Kafka",
        "weight": 1.0
      },
      "geometry": {
        "type": "Point",
        "coordinates": [
          14.4207286,
          50.0901171
        ]
      }
    },
    {
      "type": "Feature",
      "properties": {
        "id": 1200693901,
        "name": "Boj Tit\u00e1n\u016f s antick\u00fdmi bohy",
        "weight": 1.0,
        "names": [
          "Boj Tit\u00e1n\u016f s antick\u00fdmi bohy",
          "Troja"
        ]
      },
      "geometry": {
        "type": "Point",
        "coordinates": [
          14.4128274,
          50.1163186
        ]
      }
    },
    {
      "type": "Feature",
      "properties": {
        "id": 1200790218,
        "name": "svat\u00fd \u0160ebesti\u00e1n",
        "weight": 1.0
      },
      "geometry": {
        "type": "Point",
        "coordinates": [
          14.4168229,
          50.064682
        ]
      }
    },
    {
      "type": "Feature",
      "properties": {
        "id": 1200790222,
        "name": "svat\u00fd V\u00e1clav",
        "weight": 1.0
      },
      "geometry": {
        "type": "Point",
        "coordinates": [
          14.417416,
          50.0657936
        ]
      }
    },
    {
      "type": "Feature",
      "properties": {
        "id": 1200857327,
        "name": "Herkules",
        "weight": 1.0
      },
      "geometry": {
        "type": "Point",
        "coordinates": [
          14.3982386,
          50.0778047
        ]
      }
    },
    {
      "type": "Feature",
      "properties": {
        "id": 1200880586,
        "name": "Karel Bendl",
        "weight": 1.0
      },
      "geometry": {
        "type": "Point",
        "coordinates": [
          14.4076967,
          50.0997093
        ]
      }
    },
    {
      "type": "Feature",
      "properties": {
        "id": 1200986338,
        "name": "svat\u00fd Ji\u0159\u00ed",
        "weight": 1.0
      },
      "geometry": {
        "type": "Point",
        "coordinates": [
          14.4003885,
          50.090318
        ]
      }
    },
    {
      "type": "Feature",
      "properties": {
        "id": 1200990516,
        "name": "svat\u00fd Jan Nepomuck\u00fd",
        "weight": 1.0,
        "names": [
          "svat\u00fd Jan Nepomuck\u00fd",
          "svat\u00fd Josef"
        ]
      },
      "geometry": {
        "type": "Point",
        "coordinates": [
          14.3966313,
          50.0886584
        ]
      }
    },
    {
      "type": "Feature",
      "properties": {
        "id": 1200995032,
        "name": "svat\u00fd Jan Nepomuck\u00fd",
        "weight": 1.0
      },
      "geometry": {
        "type": "Point",
        "coordinates": [
          14.3891526,
          50.0875652
        ]
      }
    },
    {
      "type": "Feature",
      "properties": {
        "id": 1213987555,
        "weight": 1.0
      },
      "geometry": {
        "type": "Point",
        "coordinates": [
          14.6352353,
          50.0374563
        ]
      }
    },
    {
      "type": "Feature",
      "properties": {
        "id": 1222712369,
        "weight": 1.0
      },
      "geometry": {
        "type": "Point",
        "coordinates": [
          14.3587947,
          49.9805546
        ]
      }
    },
    {
      "type": "Feature",
      "properties": {
        "id": 1222712382,
        "weight": 1.0
      },
      "geometry": {
        "type": "Point",
        "coordinates": [
          14.3625833,
          49.9871285
        ]
      }
    },
    {
      "type": "Feature",
      "properties": {
        "id": 1233964636,
        "weight": 1.0
      },
      "geometry": {
        "type": "Point",
        "coordinates": [
          14.3148607,
          50.0139761
        ]
      }
    },
    {
      "type": "Feature",
      "properties": {
        "id": 1238732783,
        "weight": 1.0
      },
      "geometry": {
        "type": "Point",
        "coordinates": [
          14.3271392,
          49.9869853
        ]
      }
    },
    {
      "type": "Feature",
      "properties": {
        "id": 1238732814,
        "weight": 1.0
      },
      "geometry": {
        "type": "Point",
        "coordinates": [
          14.3227712,
          49.9859933
        ]
      }
    },
    {
      "type": "Feature",
      "properties": {
        "id": 1239560373,
        "name": "Bed\u0159ich Smetana",
        "weight": 1.0
      },
      "geometry": {
        "type": "Point",
        "coordinates": [
          14.4129324,
          50.0853203
        ]
      }
    },
    {
      "type": "Feature",
      "properties": {
        "id": 1239562332,
        "name": "Karel IV.",
        "weight": 1.0
      },
      "geometry": {
        "type": "Point",
        "coordinates": [
          14.4139028,
          50.0863032
        ]
      }
    },
    {
      "type": "Feature",
      "properties": {
        "id": 1241198106,
        "name": "Josef Dobrovsk\u00fd",
        "weight": 1.0
      },
      "geometry": {
        "type": "Point",
        "coordinates": [
          14.4083309,
          50.085215
        ]
      }
    },
    {
      "type": "Feature",
      "properties": {
        "id": 1248065590,
        "name": "Svatopluk \u010cech",
        "weight": 1.0
      },
      "geometry": {
        "type": "Point",
        "coordinates": [
          14.4333206,
          50.103047
        ]
      }
    },
    {
      "type": "Feature",
      "properties": {
        "id": 1271576279,
        "name": "Josef Lada",
        "weight": 1.0
      },
      "geometry": {
        "type": "Point",
        "coordinates": [
          14.4157793,
          50.0699533
        ]
      }
    },
    {
      "type": "Feature",
      "properties": {
        "id": 1279434356,
        "name": "Prof. Jaroslav Heyrovsk\u00fd",
        "weight": 1.0
      },
      "geometry": {
        "type": "Point",
        "coordinates": [
          14.4165241,
          50.0700148
        ]
      }
    },
    {
      "type": "Feature",
      "properties": {
        "id": 1284461133,
        "name": "sv. Vojt\u011bch",
        "weight": 1.0
      },
      "geometry": {
        "type": "Point",
        "coordinates": [
          14.5482934,
          50.1329018
        ]
      }
    },
    {
      "type": "Feature",
      "properties": {
        "id": 1300473188,
        "weight": 1.0
      },
      "geometry": {
        "type": "Point",
        "coordinates": [
          14.448225,
          50.115631
        ]
      }
    },
    {
      "type": "Feature",
      "properties": {
        "id": 1309542298,
        "weight": 1.0
      },
      "geometry": {
        "type": "Point",
        "coordinates": [
          14.5253027,
          50.0364394
        ]
      }
    },
    {
      "type": "Feature",
      "properties": {
        "id": 1316382292,
        "name": "Herkules s kentaurem",
        "weight": 1.0
      },
      "geometry": {
        "type": "Point",
        "coordinates": [
          14.407912,
          50.0904203
        ]
      }
    },
    {
      "type": "Feature",
      "properties": {
        "id": 1316382386,
        "name": "Venu\u0161e s Amorem",
        "weight": 1.0
      },
      "geometry": {
        "type": "Point",
        "coordinates": [
          14.4064409,
          50.0899171
        ]
      }
    },
    {
      "type": "Feature",
      "properties": {
        "id": 1325314645,
        "name": "Jan Palach",
        "weight": 1.0,
        "names": [
          "Jan Palach",
          "Wilhelm Steinitz"
        ]
      },
      "geometry": {
        "type": "Point",
        "coordinates": [
          14.415998,
          50.089179
        ]
      }
    },
    {
      "type": "Feature",
      "properties": {
        "id": 1326652925,
        "name": "svat\u00fd Ivo",
        "weight": 1.0
      },
      "geometry": {
        "type": "Point",
        "coordinates": [
          14.4131625,
          50.086179
        ]
      }
    },
    {
      "type": "Feature",
      "properties": {
        "id": 1326653642,
        "name": "svat\u00e9 Barbora, Mark\u00e9ta a Al\u017eb\u011bta",
        "weight": 1.0
      },
      "geometry": {
        "type": "Point",
        "coordinates": [
          14.4127466,
          50.0862489
        ]
      }
    },
    {
      "type": "Feature",
      "properties": {
        "id": 1326653738,
        "name": "Pieta",
        "weight": 1.0
      },
      "geometry": {
        "type": "Point",
        "coordinates": [
          14.4123372,
          50.0862886
        ]
      }
    },
    {
      "type": "Feature",
      "properties": {
        "id": 1326691541,
        "name": "svat\u00fd Josef",
        "weight": 1.0
      },
      "geometry": {
        "type": "Point",
        "coordinates": [
          14.4119144,
          50.0863697
        ]
      }
    },
    {
      "type": "Feature",
      "properties": {
        "id": 1326692838,
        "name": "svat\u00fd Franti\u0161ek Xaversk\u00fd",
        "weight": 1.0
      },
      "geometry": {
        "type": "Point",
        "coordinates": [
          14.4114886,
          50.0864162
        ]
      }
    },
    {
      "type": "Feature",
      "properties": {
        "id": 1326694419,
        "name": "svat\u00fd Kry\u0161tof",
        "weight": 1.0
      },
      "geometry": {
        "type": "Point",
        "coordinates": [
          14.4110666,
          50.0864601
        ]
      }
    },
    {
      "type": "Feature",
      "properties": {
        "id": 1326696034,
        "name": "svat\u00fd Franti\u0161ek Borgia",
        "weight": 1.0
      },
      "geometry": {
        "type": "Point",
        "coordinates": [
          14.4106414,
          50.0865084
        ]
      }
    },
    {
      "type": "Feature",
      "properties": {
        "id": 1326697443,
        "name": "svat\u00e1 Ludmila",
        "weight": 1.0
      },
      "geometry": {
        "type": "Point",
        "coordinates": [
          14.4102121,
          50.0865599
        ]
      }
    },
    {
      "type": "Feature",
      "properties": {
        "id": 1326698533,
        "name": "svat\u00fd Franti\u0161ek Serafinsk\u00fd",
        "weight": 1.0
      },
      "geometry": {
        "type": "Point",
        "coordinates": [
          14.4097898,
          50.0866136
        ]
      }
    },
    {
      "type": "Feature",
      "properties": {
        "id": 1326712565,
        "name": "svat\u00ed Jan z\u00a0Mathy, Felix z\u00a0Valois a Ivan",
        "weight": 1.0
      },
      "geometry": {
        "type": "Point",
        "coordinates": [
          14.4076799,
          50.0869887
        ]
      }
    },
    {
      "type": "Feature",
      "properties": {
        "id": 1326713041,
        "name": "svat\u00fd V\u00e1clav",
        "weight": 1.0
      },
      "geometry": {
        "type": "Point",
        "coordinates": [
          14.4073042,
          50.0870766
        ]
      }
    },
    {
      "type": "Feature",
      "properties": {
        "id": 1326714464,
        "name": "Madona se svat\u00fdm Bernardem",
        "weight": 1.0
      },
      "geometry": {
        "type": "Point",
        "coordinates": [
          14.4132146,
          50.0863006
        ]
      }
    },
    {
      "type": "Feature",
      "properties": {
        "id": 1326744552,
        "name": "Madona se svat\u00fdmi Dominikem a Tom\u00e1\u0161em Akvinsk\u00fdm",
        "weight": 1.0
      },
      "geometry": {
        "type": "Point",
        "coordinates": [
          14.4127948,
          50.0863702
        ]
      }
    },
    {
      "type": "Feature",
      "properties": {
        "id": 1326746379,
        "name": "svat\u00fd K\u0159\u00ed\u017e s\u00a0Kalv\u00e1ri\u00ed",
        "weight": 1.0
      },
      "geometry": {
        "type": "Point",
        "coordinates": [
          14.4123911,
          50.0864369
        ]
      }
    },
    {
      "type": "Feature",
      "properties": {
        "id": 1326748501,
        "name": "svat\u00e1 Anna",
        "weight": 1.0
      },
      "geometry": {
        "type": "Point",
        "coordinates": [
          14.4119476,
          50.0864768
        ]
      }
    },
    {
      "type": "Feature",
      "properties": {
        "id": 1326750530,
        "name": "svat\u00ed Cyril a Metod\u011bj",
        "weight": 1.0
      },
      "geometry": {
        "type": "Point",
        "coordinates": [
          14.4115165,
          50.0865268
        ]
      }
    },
    {
      "type": "Feature",
      "properties": {
        "id": 1326751694,
        "name": "svat\u00fd Jan K\u0159titel",
        "weight": 1.0
      },
      "geometry": {
        "type": "Point",
        "coordinates": [
          14.4111014,
          50.0865766
        ]
      }
    },
    {
      "type": "Feature",
      "properties": {
        "id": 1326752829,
        "name": "svat\u00ed Norbert, V\u00e1clav a Zikmund",
        "weight": 1.0
      },
      "geometry": {
        "type": "Point",
        "coordinates": [
          14.4106731,
          50.0866287
        ]
      }
    },
    {
      "type": "Feature",
      "properties": {
        "id": 1326769332,
        "name": "svat\u00fd Jan Nepomuck\u00fd",
        "weight": 1.0
      },
      "geometry": {
        "type": "Point",
        "coordinates": [
          14.410249,
          50.0866796
        ]
      }
    },
    {
      "type": "Feature",
      "properties": {
        "id": 1326770692,
        "name": "svat\u00fd Anton\u00edn Padu\u00e1nsk\u00fd",
        "weight": 1.0
      },
      "geometry": {
        "type": "Point",
        "coordinates": [
          14.40982,
          50.0867124
        ]
      }
    },
    {
      "type": "Feature",
      "properties": {
        "id": 1326772759,
        "name": "svat\u00fd Juda Tade\u00e1\u0161",
        "weight": 1.0
      },
      "geometry": {
        "type": "Point",
        "coordinates": [
          14.4094202,
          50.0867842
        ]
      }
    },
    {
      "type": "Feature",
      "properties": {
        "id": 1326780320,
        "name": "svat\u00fd Salvator se svat\u00fdmi Kosmou a Dami\u00e1nem",
        "weight": 1.0
      },
      "geometry": {
        "type": "Point",
        "coordinates": [
          14.4073533,
          50.0871792
        ]
      }
    },
    {
      "type": "Feature",
      "properties": {
        "id": 1346673301,
        "name": "Bruncv\u00edk",
        "weight": 1.0,
        "names": [
          "Bruncv\u00edk",
          "svat\u00fd Vincenc Ferrersk\u00fd a svat\u00fd Prokop"
        ]
      },
      "geometry": {
        "type": "Point",
        "coordinates": [
          14.4093666,
          50.0866535
        ]
      }
    },
    {
      "type": "Feature",
      "properties": {
        "id": 1347644614,
        "name": "Jan Hus",
        "weight": 1.0
      },
      "geometry": {
        "type": "Point",
        "coordinates": [
          14.3898538,
          49.971522
        ]
      }
    },
    {
      "type": "Feature",
      "properties": {
        "id": 1353938544,
        "name": "Pam\u00e1tn\u00edk svobody",
        "weight": 1.0
      },
      "geometry": {
        "type": "Point",
        "coordinates": [
          14.497445,
          50.0353194
        ]
      }
    },
    {
      "type": "Feature",
      "properties": {
        "id": 1355464627,
        "name": "Voj\u00edn Rud\u00e9 arm\u00e1dy",
        "weight": 1.0
      },
      "geometry": {
        "type": "Point",
        "coordinates": [
          14.3336857,
          49.9887546
        ]
      }
    },
    {
      "type": "Feature",
      "properties": {
        "id": 1361965191,
        "name": "Franti\u0161ek Waid",
        "weight": 1.0
      },
      "geometry": {
        "type": "Point",
        "coordinates": [
          14.4350933,
          50.0799687
        ]
      }
    },
    {
      "type": "Feature",
      "properties": {
        "id": 1361998711,
        "name": "Mychajlo Hru\u0161evskyj",
        "weight": 1.0
      },
      "geometry": {
        "type": "Point",
        "coordinates": [
          14.4246306,
          50.0990044
        ]
      }
    },
    {
      "type": "Feature",
      "properties": {
        "id": 1370412303,
        "name": "svat\u00fd Augustin",
        "weight": 1.0
      },
      "geometry": {
        "type": "Point",
        "coordinates": [
          14.4089848,
          50.0868498
        ]
      }
    },
    {
      "type": "Feature",
      "properties": {
        "id": 1379067729,
        "name": "Franti\u0161ek Ladislav Rieger",
        "weight": 1.0
      },
      "geometry": {
        "type": "Point",
        "coordinates": [
          14.4379776,
          50.0794494
        ]
      }
    },
    {
      "type": "Feature",
      "properties": {
        "id": 1382676386,
        "name": "z\u00e1mek Dob\u0159ejovice",
        "weight": 1.0
      },
      "geometry": {
        "type": "Point",
        "coordinates": [
          14.5792034,
          49.9825149
        ]
      }
    },
    {
      "type": "Feature",
      "properties": {
        "id": 1391137390,
        "name": "Pam\u011btn\u00ed trolejbusov\u00e1 zast\u00e1vka Orionka",
        "weight": 1.0
      },
      "geometry": {
        "type": "Point",
        "coordinates": [
          14.4595709,
          50.0753946
        ]
      }
    },
    {
      "type": "Feature",
      "properties": {
        "id": 1408240794,
        "name": "pam\u00e1tn\u00edk ob\u011btem I. a II. sv\u011btov\u00e9 v\u00e1lky",
        "weight": 1.0
      },
      "geometry": {
        "type": "Point",
        "coordinates": [
          14.5828543,
          49.9828891
        ]
      }
    },
    {
      "type": "Feature",
      "properties": {
        "id": 1409573540,
        "weight": 1.0
      },
      "geometry": {
        "type": "Point",
        "coordinates": [
          14.4449508,
          50.1144833
        ]
      }
    },
    {
      "type": "Feature",
      "properties": {
        "id": 1410235911,
        "weight": 1.0
      },
      "geometry": {
        "type": "Point",
        "coordinates": [
          14.4765779,
          50.1256991
        ]
      }
    },
    {
      "type": "Feature",
      "properties": {
        "id": 1444838379,
        "name": "Prim\u00e1tor Jan Podlipn\u00fd",
        "weight": 1.0
      },
      "geometry": {
        "type": "Point",
        "coordinates": [
          14.4720597,
          50.1072569
        ]
      }
    },
    {
      "type": "Feature",
      "properties": {
        "id": 1445184877,
        "weight": 1.0
      },
      "geometry": {
        "type": "Point",
        "coordinates": [
          14.3515824,
          49.999707
        ]
      }
    },
    {
      "type": "Feature",
      "properties": {
        "id": 1448591774,
        "name": "V\u0161em ob\u011btem druh\u00e9 sv\u011btov\u00e9 v\u00e1lky",
        "weight": 1.0
      },
      "geometry": {
        "type": "Point",
        "coordinates": [
          14.3527206,
          50.0025063
        ]
      }
    },
    {
      "type": "Feature",
      "properties": {
        "id": 1448591806,
        "name": "Padl\u00fdm voj\u00edn\u016fm",
        "weight": 1.0
      },
      "geometry": {
        "type": "Point",
        "coordinates": [
          14.3527794,
          50.0027715
        ]
      }
    },
    {
      "type": "Feature",
      "properties": {
        "id": 1456222898,
        "name": "Woodrow Wilson",
        "weight": 1.0
      },
      "geometry": {
        "type": "Point",
        "coordinates": [
          14.4331088,
          50.0838784
        ]
      }
    },
    {
      "type": "Feature",
      "properties": {
        "id": 1471002882,
        "weight": 1.0
      },
      "geometry": {
        "type": "Point",
        "coordinates": [
          14.3889568,
          49.9698958
        ]
      }
    },
    {
      "type": "Feature",
      "properties": {
        "id": 1492383754,
        "weight": 1.0
      },
      "geometry": {
        "type": "Point",
        "coordinates": [
          14.3543086,
          50.1033627
        ]
      }
    },
    {
      "type": "Feature",
      "properties": {
        "id": 1512102637,
        "name": "pomn\u00edk padl\u00fdch",
        "weight": 1.0
      },
      "geometry": {
        "type": "Point",
        "coordinates": [
          14.2421562,
          50.0782785
        ]
      }
    },
    {
      "type": "Feature",
      "properties": {
        "id": 1533728478,
        "weight": 1.0
      },
      "geometry": {
        "type": "Point",
        "coordinates": [
          14.4845659,
          50.1478087
        ]
      }
    },
    {
      "type": "Feature",
      "properties": {
        "id": 1572055545,
        "weight": 1.0
      },
      "geometry": {
        "type": "Point",
        "coordinates": [
          14.7448675,
          49.952287
        ]
      }
    },
    {
      "type": "Feature",
      "properties": {
        "id": 1657972381,
        "name": "Pomn\u00edk zpravodajsk\u00e9 brig\u00e1dy",
        "weight": 1.0
      },
      "geometry": {
        "type": "Point",
        "coordinates": [
          14.4433178,
          50.0554774
        ]
      }
    },
    {
      "type": "Feature",
      "properties": {
        "id": 1681004655,
        "weight": 1.0
      },
      "geometry": {
        "type": "Point",
        "coordinates": [
          14.4840272,
          50.0534261
        ]
      }
    },
    {
      "type": "Feature",
      "properties": {
        "id": 1681021883,
        "name": "1. zastaven\u00ed",
        "weight": 1.0
      },
      "geometry": {
        "type": "Point",
        "coordinates": [
          14.3945122,
          50.0841919
        ]
      }
    },
    {
      "type": "Feature",
      "properties": {
        "id": 1681021884,
        "name": "10. zastaven\u00ed",
        "weight": 1.0
      },
      "geometry": {
        "type": "Point",
        "coordinates": [
          14.3941331,
          50.0835803
        ]
      }
    },
    {
      "type": "Feature",
      "properties": {
        "id": 1681021885,
        "name": "11. zastaven\u00ed",
        "weight": 1.0
      },
      "geometry": {
        "type": "Point",
        "coordinates": [
          14.3941742,
          50.083301
        ]
      }
    },
    {
      "type": "Feature",
      "properties": {
        "id": 1681021886,
        "name": "12. zastaven\u00ed",
        "weight": 1.0
      },
      "geometry": {
        "type": "Point",
        "coordinates": [
          14.3946562,
          50.0832736
        ]
      }
    },
    {
      "type": "Feature",
      "properties": {
        "id": 1681021887,
        "name": "13. zastaven\u00ed",
        "weight": 1.0
      },
      "geometry": {
        "type": "Point",
        "coordinates": [
          14.3951389,
          50.0832509
        ]
      }
    },
    {
      "type": "Feature",
      "properties": {
        "id": 1681021888,
        "name": "14. zastaven\u00ed",
        "weight": 1.0
      },
      "geometry": {
        "type": "Point",
        "coordinates": [
          14.3956141,
          50.0832264
        ]
      }
    },
    {
      "type": "Feature",
      "properties": {
        "id": 1681021889,
        "name": "2. zastaven\u00ed",
        "weight": 1.0
      },
      "geometry": {
        "type": "Point",
        "coordinates": [
          14.3949188,
          50.0840962
        ]
      }
    },
    {
      "type": "Feature",
      "properties": {
        "id": 1681021890,
        "name": "3. zastaven\u00ed",
        "weight": 1.0
      },
      "geometry": {
        "type": "Point",
        "coordinates": [
          14.3952678,
          50.0840055
        ]
      }
    },
    {
      "type": "Feature",
      "properties": {
        "id": 1681021891,
        "name": "4. zastaven\u00ed",
        "weight": 1.0
      },
      "geometry": {
        "type": "Point",
        "coordinates": [
          14.3956373,
          50.0839116
        ]
      }
    },
    {
      "type": "Feature",
      "properties": {
        "id": 1681021892,
        "name": "5. zastaven\u00ed",
        "weight": 1.0
      },
      "geometry": {
        "type": "Point",
        "coordinates": [
          14.3962643,
          50.0837549
        ]
      }
    },
    {
      "type": "Feature",
      "properties": {
        "id": 1681021893,
        "name": "6. zastaven\u00ed",
        "weight": 1.0
      },
      "geometry": {
        "type": "Point",
        "coordinates": [
          14.3957164,
          50.0837086
        ]
      }
    },
    {
      "type": "Feature",
      "properties": {
        "id": 1681021894,
        "name": "7. zastaven\u00ed",
        "weight": 1.0
      },
      "geometry": {
        "type": "Point",
        "coordinates": [
          14.3952444,
          50.0837329
        ]
      }
    },
    {
      "type": "Feature",
      "properties": {
        "id": 1681021895,
        "name": "8. zastaven\u00ed",
        "weight": 1.0
      },
      "geometry": {
        "type": "Point",
        "coordinates": [
          14.394846,
          50.0837504
        ]
      }
    },
    {
      "type": "Feature",
      "properties": {
        "id": 1681021896,
        "name": "9. zastaven\u00ed",
        "weight": 1.0
      },
      "geometry": {
        "type": "Point",
        "coordinates": [
          14.3944446,
          50.0837702
        ]
      }
    },
    {
      "type": "Feature",
      "properties": {
        "id": 1707074023,
        "name": "pomn\u00edk Ji\u0159\u00edmu Sedm\u00edkovi",
        "weight": 1.0
      },
      "geometry": {
        "type": "Point",
        "coordinates": [
          14.4058139,
          50.1240056
        ]
      }
    },
    {
      "type": "Feature",
      "properties": {
        "id": 1707097514,
        "name": "hradi\u0161t\u011b Z\u00e1mka",
        "weight": 1.0
      },
      "geometry": {
        "type": "Point",
        "coordinates": [
          14.4030309,
          50.1454092
        ]
      }
    },
    {
      "type": "Feature",
      "properties": {
        "id": 1707103512,
        "name": "\u00dan\u011btick\u00e1 kultura",
        "weight": 1.0
      },
      "geometry": {
        "type": "Point",
        "coordinates": [
          14.3742507,
          50.1518663
        ]
      }
    },
    {
      "type": "Feature",
      "properties": {
        "id": 1709050951,
        "name": "Ob\u011btem odboje a revoluce",
        "weight": 1.0
      },
      "geometry": {
        "type": "Point",
        "coordinates": [
          14.4088407,
          49.9891928
        ]
      }
    },
    {
      "type": "Feature",
      "properties": {
        "id": 1712557731,
        "weight": 1.0
      },
      "geometry": {
        "type": "Point",
        "coordinates": [
          14.3676159,
          50.0412169
        ]
      }
    },
    {
      "type": "Feature",
      "properties": {
        "id": 1714896915,
        "name": "svat\u00fd Filip Benicius",
        "weight": 1.0
      },
      "geometry": {
        "type": "Point",
        "coordinates": [
          14.4081475,
          50.0870133
        ]
      }
    },
    {
      "type": "Feature",
      "properties": {
        "id": 1714896917,
        "name": "svat\u00fd Kajet\u00e1n",
        "weight": 1.0
      },
      "geometry": {
        "type": "Point",
        "coordinates": [
          14.4085683,
          50.086937
        ]
      }
    },
    {
      "type": "Feature",
      "properties": {
        "id": 1714896919,
        "name": "svat\u00e1 Luitgarda",
        "weight": 1.0
      },
      "geometry": {
        "type": "Point",
        "coordinates": [
          14.4085203,
          50.0868476
        ]
      }
    },
    {
      "type": "Feature",
      "properties": {
        "id": 1714896921,
        "name": "svat\u00fd Mikul\u00e1\u0161 Tolentinsk\u00fd",
        "weight": 1.0
      },
      "geometry": {
        "type": "Point",
        "coordinates": [
          14.4089529,
          50.0867618
        ]
      }
    },
    {
      "type": "Feature",
      "properties": {
        "id": 1714896924,
        "name": "svat\u00fd Vojt\u011bch",
        "weight": 1.0
      },
      "geometry": {
        "type": "Point",
        "coordinates": [
          14.4081004,
          50.0869101
        ]
      }
    },
    {
      "type": "Feature",
      "properties": {
        "id": 1714896926,
        "name": "svat\u00fd V\u00edt",
        "weight": 1.0
      },
      "geometry": {
        "type": "Point",
        "coordinates": [
          14.4077302,
          50.087095
        ]
      }
    },
    {
      "type": "Feature",
      "properties": {
        "id": 1718527670,
        "name": "Ob\u011btem sv\u011btov\u00e9 v\u00e1lky 1914-1918",
        "weight": 1.0
      },
      "geometry": {
        "type": "Point",
        "coordinates": [
          14.6280276,
          50.1163823
        ]
      }
    },
    {
      "type": "Feature",
      "properties": {
        "id": 1719924591,
        "name": "svat\u00fd Jan K\u0159titel",
        "weight": 1.0
      },
      "geometry": {
        "type": "Point",
        "coordinates": [
          14.4051389,
          50.0863563
        ]
      }
    },
    {
      "type": "Feature",
      "properties": {
        "id": 1748708699,
        "name": "svat\u00fd Jan Nepomuck\u00fd",
        "weight": 1.0
      },
      "geometry": {
        "type": "Point",
        "coordinates": [
          14.4088275,
          50.0476322
        ]
      }
    },
    {
      "type": "Feature",
      "properties": {
        "id": 1751591206,
        "name": "V\u00e1clav \u0160tulc",
        "weight": 1.0
      },
      "geometry": {
        "type": "Point",
        "coordinates": [
          14.4172315,
          50.0655959
        ]
      }
    },
    {
      "type": "Feature",
      "properties": {
        "id": 1778898705,
        "weight": 1.0
      },
      "geometry": {
        "type": "Point",
        "coordinates": [
          14.4845227,
          50.1205874
        ]
      }
    },
    {
      "type": "Feature",
      "properties": {
        "id": 1786190520,
        "name": "M\u00edsto seskoku para\u0161utist\u016f Gab\u010d\u00edka a Kubi\u0161e",
        "weight": 1.0
      },
      "geometry": {
        "type": "Point",
        "coordinates": [
          14.7173013,
          50.1233759
        ]
      }
    },
    {
      "type": "Feature",
      "properties": {
        "id": 1803895017,
        "weight": 1.0
      },
      "geometry": {
        "type": "Point",
        "coordinates": [
          14.4043557,
          50.0072078
        ]
      }
    },
    {
      "type": "Feature",
      "properties": {
        "id": 1821701411,
        "weight": 1.0
      },
      "geometry": {
        "type": "Point",
        "coordinates": [
          14.416066,
          50.0268366
        ]
      }
    },
    {
      "type": "Feature",
      "properties": {
        "id": 1832053821,
        "name": "Radegast",
        "weight": 1.0
      },
      "geometry": {
        "type": "Point",
        "coordinates": [
          14.4045866,
          50.1184585
        ]
      }
    },
    {
      "type": "Feature",
      "properties": {
        "id": 1838288304,
        "name": "Ot\u00fdlie Sklen\u00e1\u0159ov\u00e1-Mal\u00e1",
        "weight": 1.0
      },
      "geometry": {
        "type": "Point",
        "coordinates": [
          14.4301117,
          50.0783035
        ]
      }
    },
    {
      "type": "Feature",
      "properties": {
        "id": 1852952168,
        "weight": 1.0
      },
      "geometry": {
        "type": "Point",
        "coordinates": [
          14.7098006,
          49.9360371
        ]
      }
    },
    {
      "type": "Feature",
      "properties": {
        "id": 1852952314,
        "name": "pam\u00e1tn\u00edk ob\u011btem odboje",
        "weight": 1.0
      },
      "geometry": {
        "type": "Point",
        "coordinates": [
          14.7103178,
          49.9368021
        ]
      }
    },
    {
      "type": "Feature",
      "properties": {
        "id": 1867248207,
        "weight": 1.0
      },
      "geometry": {
        "type": "Point",
        "coordinates": [
          14.7152114,
          49.9387135
        ]
      }
    },
    {
      "type": "Feature",
      "properties": {
        "id": 1888075109,
        "weight": 1.0
      },
      "geometry": {
        "type": "Point",
        "coordinates": [
          14.523369,
          50.0488239
        ]
      }
    },
    {
      "type": "Feature",
      "properties": {
        "id": 1910086824,
        "weight": 1.0
      },
      "geometry": {
        "type": "Point",
        "coordinates": [
          14.5497546,
          49.9652531
        ]
      }
    },
    {
      "type": "Feature",
      "properties": {
        "id": 1910480663,
        "weight": 1.0
      },
      "geometry": {
        "type": "Point",
        "coordinates": [
          14.2757749,
          49.9491657
        ]
      }
    },
    {
      "type": "Feature",
      "properties": {
        "id": 1922925120,
        "name": "svat\u00fd Filip Neri",
        "weight": 1.0
      },
      "geometry": {
        "type": "Point",
        "coordinates": [
          14.3990052,
          50.0893912
        ]
      }
    },
    {
      "type": "Feature",
      "properties": {
        "id": 1934989189,
        "name": "Ob\u011btem komunistick\u00e9 policie",
        "weight": 1.0
      },
      "geometry": {
        "type": "Point",
        "coordinates": [
          14.3919168,
          50.0896284
        ]
      }
    },
    {
      "type": "Feature",
      "properties": {
        "id": 1940523429,
        "name": "Pomn\u00ed\u010dek u Rokytky",
        "weight": 1.0
      },
      "geometry": {
        "type": "Point",
        "coordinates": [
          14.506267,
          50.1060687
        ]
      }
    },
    {
      "type": "Feature",
      "properties": {
        "id": 1948155727,
        "name": "Pra\u017esk\u00e1 defenestrace 1618",
        "weight": 1.0
      },
      "geometry": {
        "type": "Point",
        "coordinates": [
          14.4018279,
          50.0901709
        ]
      }
    },
    {
      "type": "Feature",
      "properties": {
        "id": 1964429100,
        "name": "Karel Havl\u00ed\u010dek Borovsk\u00fd",
        "weight": 1.0
      },
      "geometry": {
        "type": "Point",
        "coordinates": [
          14.4542589,
          50.0851016
        ]
      }
    },
    {
      "type": "Feature",
      "properties": {
        "id": 2026321748,
        "name": "Jan Palach a Jan Zaj\u00edc",
        "weight": 1.0,
        "names": [
          "Jan Palach a Jan Zaj\u00edc",
          "Wynn Alan Bruce"
        ]
      },
      "geometry": {
        "type": "Point",
        "coordinates": [
          14.4293462,
          50.080048
        ]
      }
    },
    {
      "type": "Feature",
      "properties": {
        "id": 2075012245,
        "name": "Pam\u00e1tn\u00edk ob\u011bt\u00ed 2. sv\u011btov\u00e9 v\u00e1lky",
        "weight": 1.0
      },
      "geometry": {
        "type": "Point",
        "coordinates": [
          14.6101905,
          50.1114203
        ]
      }
    },
    {
      "type": "Feature",
      "properties": {
        "id": 2076704803,
        "weight": 1.0
      },
      "geometry": {
        "type": "Point",
        "coordinates": [
          14.296119,
          50.0281921
        ]
      }
    },
    {
      "type": "Feature",
      "properties": {
        "id": 2087454717,
        "weight": 1.0
      },
      "geometry": {
        "type": "Point",
        "coordinates": [
          14.5349313,
          50.1045541
        ]
      }
    },
    {
      "type": "Feature",
      "properties": {
        "id": 2121641968,
        "weight": 1.0
      },
      "geometry": {
        "type": "Point",
        "coordinates": [
          14.4523268,
          50.1314231
        ]
      }
    },
    {
      "type": "Feature",
      "properties": {
        "id": 2153260655,
        "weight": 1.0
      },
      "geometry": {
        "type": "Point",
        "coordinates": [
          14.3461488,
          50.1328883
        ]
      }
    },
    {
      "type": "Feature",
      "properties": {
        "id": 2202478224,
        "weight": 1.0
      },
      "geometry": {
        "type": "Point",
        "coordinates": [
          14.4527114,
          50.0703826
        ]
      }
    },
    {
      "type": "Feature",
      "properties": {
        "id": 2239824835,
        "weight": 1.0
      },
      "geometry": {
        "type": "Point",
        "coordinates": [
          14.4401091,
          49.9583103
        ]
      }
    },
    {
      "type": "Feature",
      "properties": {
        "id": 2239824996,
        "weight": 1.0
      },
      "geometry": {
        "type": "Point",
        "coordinates": [
          14.5274043,
          49.9594923
        ]
      }
    },
    {
      "type": "Feature",
      "properties": {
        "id": 2252491828,
        "name": "M\u00edsto leteck\u00e9 nehody 1975",
        "weight": 1.0
      },
      "geometry": {
        "type": "Point",
        "coordinates": [
          14.3867814,
          50.1362006
        ]
      }
    },
    {
      "type": "Feature",
      "properties": {
        "id": 2262646526,
        "name": "z\u00e1mek Neb\u0159enice",
        "weight": 1.0
      },
      "geometry": {
        "type": "Point",
        "coordinates": [
          14.6057711,
          49.944276
        ]
      }
    },
    {
      "type": "Feature",
      "properties": {
        "id": 2264394640,
        "name": "Padl\u00fdm v 2. sv\u011btov\u00e9 v\u00e1lce",
        "weight": 1.0
      },
      "geometry": {
        "type": "Point",
        "coordinates": [
          14.4455729,
          50.0265998
        ]
      }
    },
    {
      "type": "Feature",
      "properties": {
        "id": 2275858324,
        "name": "Tramway T3",
        "weight": 1.0
      },
      "geometry": {
        "type": "Point",
        "coordinates": [
          14.5937701,
          50.1518295
        ]
      }
    },
    {
      "type": "Feature",
      "properties": {
        "id": 2283646218,
        "name": "Ivan Grigorijevi\u010d Gon\u010darenko",
        "weight": 1.0
      },
      "geometry": {
        "type": "Point",
        "coordinates": [
          14.4093774,
          50.0926682
        ]
      }
    },
    {
      "type": "Feature",
      "properties": {
        "id": 2288163833,
        "weight": 1.0
      },
      "geometry": {
        "type": "Point",
        "coordinates": [
          14.2691456,
          50.0326278
        ]
      }
    },
    {
      "type": "Feature",
      "properties": {
        "id": 2295721324,
        "name": "Winston Churchill",
        "weight": 1.0
      },
      "geometry": {
        "type": "Point",
        "coordinates": [
          14.4028315,
          50.0891365
        ]
      }
    },
    {
      "type": "Feature",
      "properties": {
        "id": 2323083325,
        "name": "Husitsk\u00e1 \u017eena",
        "weight": 1.0
      },
      "geometry": {
        "type": "Point",
        "coordinates": [
          14.3267167,
          50.0836049
        ]
      }
    },
    {
      "type": "Feature",
      "properties": {
        "id": 2324605947,
        "name": "K\u00e1jovsk\u00e1 kaple",
        "weight": 1.0
      },
      "geometry": {
        "type": "Point",
        "coordinates": [
          14.5244564,
          50.1248019
        ]
      }
    },
    {
      "type": "Feature",
      "properties": {
        "id": 2351122263,
        "name": "Alois Folkman",
        "weight": 1.0,
        "names": [
          "Alois Folkman",
          "Ath\u00e9na"
        ]
      },
      "geometry": {
        "type": "Point",
        "coordinates": [
          14.4395016,
          50.07105
        ]
      }
    },
    {
      "type": "Feature",
      "properties": {
        "id": 2360540439,
        "name": "Kalv\u00e1rie",
        "weight": 1.0
      },
      "geometry": {
        "type": "Point",
        "coordinates": [
          14.455646,
          49.9633837
        ]
      }
    },
    {
      "type": "Feature",
      "properties": {
        "id": 2387460865,
        "weight": 1.0
      },
      "geometry": {
        "type": "Point",
        "coordinates": [
          14.4837382,
          50.142981
        ]
      }
    },
    {
      "type": "Feature",
      "properties": {
        "id": 2408033306,
        "weight": 1.0
      },
      "geometry": {
        "type": "Point",
        "coordinates": [
          14.3047827,
          49.9755843
        ]
      }
    },
    {
      "type": "Feature",
      "properties": {
        "id": 2409856167,
        "name": "V\u00e1clav Vydra",
        "weight": 1.0
      },
      "geometry": {
        "type": "Point",
        "coordinates": [
          14.447633,
          50.0779716
        ]
      }
    },
    {
      "type": "Feature",
      "properties": {
        "id": 2411229664,
        "name": "Herkules s drakem",
        "weight": 1.0
      },
      "geometry": {
        "type": "Point",
        "coordinates": [
          14.4085402,
          50.0907395
        ]
      }
    },
    {
      "type": "Feature",
      "properties": {
        "id": 2422295557,
        "name": "z\u00e1kladn\u00ed k\u00e1men \u017ei\u017ekovsk\u00e9ho vys\u00edla\u010de",
        "weight": 1.0
      },
      "geometry": {
        "type": "Point",
        "coordinates": [
          14.4512377,
          50.0808944
        ]
      }
    },
    {
      "type": "Feature",
      "properties": {
        "id": 2486363241,
        "name": "Franci\u0161ak Skaryna",
        "weight": 1.0
      },
      "geometry": {
        "type": "Point",
        "coordinates": [
          14.4164606,
          50.0864427
        ]
      }
    },
    {
      "type": "Feature",
      "properties": {
        "id": 2486381358,
        "name": "Francisk Skaryna",
        "weight": 1.0
      },
      "geometry": {
        "type": "Point",
        "coordinates": [
          14.3898962,
          50.0924665
        ]
      }
    },
    {
      "type": "Feature",
      "properties": {
        "id": 2513189444,
        "name": "Karel V\u00e1clav Rais",
        "weight": 1.0
      },
      "geometry": {
        "type": "Point",
        "coordinates": [
          14.4437748,
          50.0764046
        ]
      }
    },
    {
      "type": "Feature",
      "properties": {
        "id": 2516002136,
        "weight": 1.0
      },
      "geometry": {
        "type": "Point",
        "coordinates": [
          14.4827945,
          50.1239103
        ]
      }
    },
    {
      "type": "Feature",
      "properties": {
        "id": 2517769530,
        "name": "Viselec",
        "weight": 1.0
      },
      "geometry": {
        "type": "Point",
        "coordinates": [
          14.4183042,
          50.0841677
        ]
      }
    },
    {
      "type": "Feature",
      "properties": {
        "id": 2529909508,
        "weight": 1.0
      },
      "geometry": {
        "type": "Point",
        "coordinates": [
          14.6087878,
          49.9436425
        ]
      }
    },
    {
      "type": "Feature",
      "properties": {
        "id": 2529909509,
        "weight": 1.0
      },
      "geometry": {
        "type": "Point",
        "coordinates": [
          14.6029064,
          49.9580514
        ]
      }
    },
    {
      "type": "Feature",
      "properties": {
        "id": 2529909510,
        "weight": 1.0
      },
      "geometry": {
        "type": "Point",
        "coordinates": [
          14.5916133,
          49.9630669
        ]
      }
    },
    {
      "type": "Feature",
      "properties": {
        "id": 2529909511,
        "weight": 1.0
      },
      "geometry": {
        "type": "Point",
        "coordinates": [
          14.598413,
          49.9700412
        ]
      }
    },
    {
      "type": "Feature",
      "properties": {
        "id": 2529909512,
        "weight": 1.0
      },
      "geometry": {
        "type": "Point",
        "coordinates": [
          14.5877369,
          49.97086
        ]
      }
    },
    {
      "type": "Feature",
      "properties": {
        "id": 2529909513,
        "weight": 1.0
      },
      "geometry": {
        "type": "Point",
        "coordinates": [
          14.5691828,
          49.9779774
        ]
      }
    },
    {
      "type": "Feature",
      "properties": {
        "id": 2529909514,
        "weight": 1.0
      },
      "geometry": {
        "type": "Point",
        "coordinates": [
          14.5436992,
          49.9940058
        ]
      }
    },
    {
      "type": "Feature",
      "properties": {
        "id": 2578544989,
        "name": "ob\u011btem a mstitel\u016fm",
        "weight": 1.0
      },
      "geometry": {
        "type": "Point",
        "coordinates": [
          14.4022704,
          50.042953
        ]
      }
    },
    {
      "type": "Feature",
      "properties": {
        "id": 2578636978,
        "weight": 1.0
      },
      "geometry": {
        "type": "Point",
        "coordinates": [
          14.323202,
          50.1021136
        ]
      }
    },
    {
      "type": "Feature",
      "properties": {
        "id": 2578637013,
        "weight": 1.0
      },
      "geometry": {
        "type": "Point",
        "coordinates": [
          14.2818847,
          50.1356456
        ]
      }
    },
    {
      "type": "Feature",
      "properties": {
        "id": 2578637017,
        "weight": 1.0
      },
      "geometry": {
        "type": "Point",
        "coordinates": [
          14.2800472,
          50.1357117
        ]
      }
    },
    {
      "type": "Feature",
      "properties": {
        "id": 2578637025,
        "weight": 1.0
      },
      "geometry": {
        "type": "Point",
        "coordinates": [
          14.2729254,
          50.1427608
        ]
      }
    },
    {
      "type": "Feature",
      "properties": {
        "id": 2578637028,
        "weight": 1.0
      },
      "geometry": {
        "type": "Point",
        "coordinates": [
          14.3057734,
          50.1548372
        ]
      }
    },
    {
      "type": "Feature",
      "properties": {
        "id": 2578677841,
        "name": "Lysolajsk\u00e1 bo\u017e\u00ed muka",
        "weight": 1.0
      },
      "geometry": {
        "type": "Point",
        "coordinates": [
          14.3696726,
          50.1189927
        ]
      }
    },
    {
      "type": "Feature",
      "properties": {
        "id": 2578677877,
        "weight": 1.0
      },
      "geometry": {
        "type": "Point",
        "coordinates": [
          14.3701492,
          50.1079371
        ]
      }
    },
    {
      "type": "Feature",
      "properties": {
        "id": 2599425635,
        "name": "Jan Svatopluk Presl",
        "weight": 1.0
      },
      "geometry": {
        "type": "Point",
        "coordinates": [
          14.4333786,
          50.0818566
        ]
      }
    },
    {
      "type": "Feature",
      "properties": {
        "id": 2618946038,
        "name": "Pomn\u00edk ob\u011btem Pra\u017esk\u00e9ho povst\u00e1n\u00ed",
        "weight": 1.0
      },
      "geometry": {
        "type": "Point",
        "coordinates": [
          14.4423311,
          50.149449
        ]
      }
    },
    {
      "type": "Feature",
      "properties": {
        "id": 2659167415,
        "name": "L\u00edpa svobody",
        "weight": 1.0
      },
      "geometry": {
        "type": "Point",
        "coordinates": [
          14.3809833,
          50.0125667
        ]
      }
    },
    {
      "type": "Feature",
      "properties": {
        "id": 2673827246,
        "weight": 1.0
      },
      "geometry": {
        "type": "Point",
        "coordinates": [
          14.6828962,
          50.1106866
        ]
      }
    },
    {
      "type": "Feature",
      "properties": {
        "id": 2685865658,
        "weight": 1.0
      },
      "geometry": {
        "type": "Point",
        "coordinates": [
          14.6732048,
          50.0369193
        ]
      }
    },
    {
      "type": "Feature",
      "properties": {
        "id": 2686303787,
        "name": "Mari\u00e1nsk\u00fd sloup",
        "weight": 1.0
      },
      "geometry": {
        "type": "Point",
        "coordinates": [
          14.6554464,
          49.9918604
        ]
      }
    },
    {
      "type": "Feature",
      "properties": {
        "id": 2720411294,
        "name": "Pomn\u00edk padl\u00fdm bulharsk\u00fdm hrdin\u016fm",
        "weight": 1.0
      },
      "geometry": {
        "type": "Point",
        "coordinates": [
          14.4749377,
          50.0828856
        ]
      }
    },
    {
      "type": "Feature",
      "properties": {
        "id": 2720466628,
        "name": "Jan \u0160verma",
        "weight": 1.0
      },
      "geometry": {
        "type": "Point",
        "coordinates": [
          14.4753663,
          50.0829743
        ]
      }
    },
    {
      "type": "Feature",
      "properties": {
        "id": 2720466629,
        "name": "Jo\u017eka Jab\u016frkov\u00e1",
        "weight": 1.0
      },
      "geometry": {
        "type": "Point",
        "coordinates": [
          14.4744248,
          50.0824476
        ]
      }
    },
    {
      "type": "Feature",
      "properties": {
        "id": 2720466630,
        "name": "Julius Fu\u010d\u00edk",
        "weight": 1.0
      },
      "geometry": {
        "type": "Point",
        "coordinates": [
          14.4742423,
          50.0824155
        ]
      }
    },
    {
      "type": "Feature",
      "properties": {
        "id": 2736613581,
        "name": "Pam\u00e1tn\u00edk padl\u00fdm v 1. sv\u011btov\u00e9 v\u00e1lce",
        "weight": 1.0
      },
      "geometry": {
        "type": "Point",
        "coordinates": [
          14.2808635,
          50.0450251
        ]
      }
    },
    {
      "type": "Feature",
      "properties": {
        "id": 2739007460,
        "name": "Hradi\u0161t\u011b B\u0159ez\u00ed",
        "weight": 1.0
      },
      "geometry": {
        "type": "Point",
        "coordinates": [
          14.6988494,
          50.0233888
        ]
      }
    },
    {
      "type": "Feature",
      "properties": {
        "id": 2740551612,
        "name": "Pam\u00e1tn\u00edk ob\u011btem 1. a 2. sv\u011btov\u00e9 v\u00e1lky",
        "weight": 1.0
      },
      "geometry": {
        "type": "Point",
        "coordinates": [
          14.3137333,
          50.049028
        ]
      }
    },
    {
      "type": "Feature",
      "properties": {
        "id": 2754292461,
        "name": "Pam\u00e1tn\u00edk ob\u011btem komunismu",
        "weight": 1.0
      },
      "geometry": {
        "type": "Point",
        "coordinates": [
          14.313506,
          50.0487573
        ]
      }
    },
    {
      "type": "Feature",
      "properties": {
        "id": 2755038122,
        "name": "Ji\u0159\u00ed Wolker",
        "weight": 1.0
      },
      "geometry": {
        "type": "Point",
        "coordinates": [
          14.4096785,
          50.0710707
        ]
      }
    },
    {
      "type": "Feature",
      "properties": {
        "id": 2796028478,
        "name": "Svat\u00fd obr\u00e1zek",
        "weight": 1.0
      },
      "geometry": {
        "type": "Point",
        "coordinates": [
          14.2499103,
          49.9550669
        ]
      }
    },
    {
      "type": "Feature",
      "properties": {
        "id": 2817525718,
        "name": "Albert Heller",
        "weight": 1.0,
        "names": [
          "Albert Heller",
          "Gr\u00e9ta Hellerov\u00e1"
        ]
      },
      "geometry": {
        "type": "Point",
        "coordinates": [
          14.4197438,
          50.0885625
        ]
      }
    },
    {
      "type": "Feature",
      "properties": {
        "id": 2817525719,
        "name": "Artur Lasch",
        "weight": 1.0
      },
      "geometry": {
        "type": "Point",
        "coordinates": [
          14.401384,
          50.0890314
        ]
      }
    },
    {
      "type": "Feature",
      "properties": {
        "id": 2817525720,
        "name": "Dr. Gertrud Loew",
        "weight": 1.0,
        "names": [
          "Dr. Gertrud Loew",
          "Dr. Hans Loew",
          "Ladislav Pale\u010dek",
          "Emil \u010cernohouz"
        ]
      },
      "geometry": {
        "type": "Point",
        "coordinates": [
          14.4188016,
          50.0906237
        ]
      }
    },
    {
      "type": "Feature",
      "properties": {
        "id": 2817525722,
        "name": "Eduard B\u00f6hm",
        "weight": 1.0,
        "names": [
          "Eduard B\u00f6hm",
          "Herm\u00edna B\u00f6hmov\u00e1"
        ]
      },
      "geometry": {
        "type": "Point",
        "coordinates": [
          14.4188504,
          50.08801
        ]
      }
    },
    {
      "type": "Feature",
      "properties": {
        "id": 2817525723,
        "name": "Erich Spalter",
        "weight": 1.0
      },
      "geometry": {
        "type": "Point",
        "coordinates": [
          14.4201189,
          50.0909483
        ]
      }
    },
    {
      "type": "Feature",
      "properties": {
        "id": 2817525724,
        "name": "Flora Mohrov\u00e1",
        "weight": 1.0,
        "names": [
          "Flora Mohrov\u00e1",
          "JUdr. Artur Mohr",
          "Kate\u0159ina Mohrov\u00e1"
        ]
      },
      "geometry": {
        "type": "Point",
        "coordinates": [
          14.4157805,
          50.0823077
        ]
      }
    },
    {
      "type": "Feature",
      "properties": {
        "id": 2817525730,
        "name": "JUdr. P\u0159emysl \u0160\u00e1mal",
        "weight": 1.0
      },
      "geometry": {
        "type": "Point",
        "coordinates": [
          14.4042818,
          50.0859446
        ]
      }
    },
    {
      "type": "Feature",
      "properties": {
        "id": 2817525732,
        "name": "Lore Winternitzov\u00e1",
        "weight": 1.0,
        "names": [
          "Lore Winternitzov\u00e1",
          "\u0160t\u011bp\u00e1n Michael Winternitz"
        ]
      },
      "geometry": {
        "type": "Point",
        "coordinates": [
          14.419847,
          50.0883896
        ]
      }
    },
    {
      "type": "Feature",
      "properties": {
        "id": 2817525745,
        "name": "Sophie Lieben",
        "weight": 1.0
      },
      "geometry": {
        "type": "Point",
        "coordinates": [
          14.4225197,
          50.0901156
        ]
      }
    },
    {
      "type": "Feature",
      "properties": {
        "id": 2817574576,
        "name": "Ad\u00e9la Freudenfeldov\u00e1",
        "weight": 1.0,
        "names": [
          "Ad\u00e9la Freudenfeldov\u00e1",
          "Mirek \u017d\u00ed\u017eala",
          "Rudolf Freudenfeld",
          "\u0160arlota \u017d\u00ed\u017ealov\u00e1 roz. Freudenfeldov\u00e1"
        ]
      },
      "geometry": {
        "type": "Point",
        "coordinates": [
          14.4198423,
          50.0904269
        ]
      }
    },
    {
      "type": "Feature",
      "properties": {
        "id": 2817574577,
        "name": "Arno\u0161t Grosslicht",
        "weight": 1.0,
        "names": [
          "Arno\u0161t Grosslicht",
          "Elsa Grosslichtov\u00e1",
          "Franti\u0161ek Grosslicht"
        ]
      },
      "geometry": {
        "type": "Point",
        "coordinates": [
          14.4199785,
          50.0895303
        ]
      }
    },
    {
      "type": "Feature",
      "properties": {
        "id": 2817574579,
        "name": "Eva Abelesov\u00e1",
        "weight": 1.0,
        "names": [
          "Eva Abelesov\u00e1",
          "He\u0159man Abeles",
          "Zdenka Abelesov\u00e1"
        ]
      },
      "geometry": {
        "type": "Point",
        "coordinates": [
          14.4199396,
          50.088874
        ]
      }
    },
    {
      "type": "Feature",
      "properties": {
        "id": 2817574582,
        "name": "Max Eckstein",
        "weight": 1.0
      },
      "geometry": {
        "type": "Point",
        "coordinates": [
          14.4191284,
          50.0885477
        ]
      }
    },
    {
      "type": "Feature",
      "properties": {
        "id": 2817574583,
        "name": "Maximilian Lasch",
        "weight": 1.0,
        "names": [
          "Maximilian Lasch",
          "Rudolf Lasch"
        ]
      },
      "geometry": {
        "type": "Point",
        "coordinates": [
          14.4205793,
          50.0907605
        ]
      }
    },
    {
      "type": "Feature",
      "properties": {
        "id": 2817959421,
        "name": "Alena Pfefferov\u00e1",
        "weight": 1.0,
        "names": [
          "Alena Pfefferov\u00e1",
          "Berta Krumpelesov\u00e1",
          "Erv\u00edn Pfeffer",
          "Ji\u0159ina Pfefferov\u00e1",
          "Marta Pfefferov\u00e1"
        ]
      },
      "geometry": {
        "type": "Point",
        "coordinates": [
          14.4178217,
          50.0907255
        ]
      }
    },
    {
      "type": "Feature",
      "properties": {
        "id": 2817959423,
        "name": "Erv\u00edn Fr\u00f6hlich",
        "weight": 1.0,
        "names": [
          "Erv\u00edn Fr\u00f6hlich",
          "Pavla Fr\u00f6hlichov\u00e1"
        ]
      },
      "geometry": {
        "type": "Point",
        "coordinates": [
          14.418608,
          50.0909322
        ]
      }
    },
    {
      "type": "Feature",
      "properties": {
        "id": 2817959425,
        "name": "Eva Mia Pollakov\u00e1",
        "weight": 1.0,
        "names": [
          "Eva Mia Pollakov\u00e1",
          "Vilma Pollakov\u00e1 roz. Roub\u00ed\u010dkov\u00e1",
          "Karel Markus",
          "Berta Markusov\u00e1",
          "Helena Fahnov\u00e1",
          "Karel Fahn"
        ]
      },
      "geometry": {
        "type": "Point",
        "coordinates": [
          14.4175416,
          50.0912049
        ]
      }
    },
    {
      "type": "Feature",
      "properties": {
        "id": 2817959427,
        "name": "MUDr. Otto Heller",
        "weight": 1.0
      },
      "geometry": {
        "type": "Point",
        "coordinates": [
          14.4186753,
          50.0908163
        ]
      }
    },
    {
      "type": "Feature",
      "properties": {
        "id": 2817959429,
        "name": "Ota Klein",
        "weight": 1.0
      },
      "geometry": {
        "type": "Point",
        "coordinates": [
          14.4195237,
          50.0906104
        ]
      }
    },
    {
      "type": "Feature",
      "properties": {
        "id": 2818040198,
        "name": "Beila Bergmannov\u00e1",
        "weight": 1.0,
        "names": [
          "Beila Bergmannov\u00e1",
          "R\u016f\u017eena Bergmannov\u00e1",
          "Alois Bergmann",
          "Blanka Jan\u00e1\u0161ov\u00e1, roz.Mahlerov\u00e1"
        ]
      },
      "geometry": {
        "type": "Point",
        "coordinates": [
          14.4186237,
          50.0883796
        ]
      }
    },
    {
      "type": "Feature",
      "properties": {
        "id": 2818040200,
        "name": "Helena Fuchsov\u00e1",
        "weight": 1.0,
        "names": [
          "Helena Fuchsov\u00e1",
          "Em\u00edlie Fuchsov\u00e1"
        ]
      },
      "geometry": {
        "type": "Point",
        "coordinates": [
          14.4178115,
          50.0882716
        ]
      }
    },
    {
      "type": "Feature",
      "properties": {
        "id": 2818489636,
        "name": "Artur Bass",
        "weight": 1.0,
        "names": [
          "Artur Bass",
          "Hanu\u0161 Adler",
          "Paula Bass",
          "Viktor Popper"
        ]
      },
      "geometry": {
        "type": "Point",
        "coordinates": [
          14.4239383,
          50.0858666
        ]
      }
    },
    {
      "type": "Feature",
      "properties": {
        "id": 2818489640,
        "name": "He\u0159man Hellmann",
        "weight": 1.0,
        "names": [
          "He\u0159man Hellmann",
          "Marie Hellmannov\u00e1"
        ]
      },
      "geometry": {
        "type": "Point",
        "coordinates": [
          14.4242892,
          50.0806563
        ]
      }
    },
    {
      "type": "Feature",
      "properties": {
        "id": 2818489641,
        "name": "Jan Urbach",
        "weight": 1.0,
        "names": [
          "Jan Urbach",
          "Jind\u0159ich Urbach",
          "Melanie Urbachov\u00e1"
        ]
      },
      "geometry": {
        "type": "Point",
        "coordinates": [
          14.4292763,
          50.08622
        ]
      }
    },
    {
      "type": "Feature",
      "properties": {
        "id": 2818489643,
        "name": "Josef Waldmann",
        "weight": 1.0
      },
      "geometry": {
        "type": "Point",
        "coordinates": [
          14.4291697,
          50.0828454
        ]
      }
    },
    {
      "type": "Feature",
      "properties": {
        "id": 2818489644,
        "name": "Karel Jelinek",
        "weight": 1.0
      },
      "geometry": {
        "type": "Point",
        "coordinates": [
          14.4071014,
          50.0802568
        ]
      }
    },
    {
      "type": "Feature",
      "properties": {
        "id": 2818489646,
        "name": "Ludv\u00edk Hasterl\u00edk",
        "weight": 1.0,
        "names": [
          "Ludv\u00edk Hasterl\u00edk",
          "Matylda Hasterl\u00edkov\u00e1",
          "R\u016f\u017eena Hasterl\u00edkov\u00e1",
          "Vil\u00e9m Hasterl\u00edk"
        ]
      },
      "geometry": {
        "type": "Point",
        "coordinates": [
          14.4198641,
          50.0857591
        ]
      }
    },
    {
      "type": "Feature",
      "properties": {
        "id": 2818489648,
        "name": "Marie Eli\u0161\u00e1kov\u00e1",
        "weight": 1.0
      },
      "geometry": {
        "type": "Point",
        "coordinates": [
          14.4263009,
          50.0817433
        ]
      }
    },
    {
      "type": "Feature",
      "properties": {
        "id": 2818489652,
        "name": "Oskar Schwarzkopf",
        "weight": 1.0
      },
      "geometry": {
        "type": "Point",
        "coordinates": [
          14.4254546,
          50.0872142
        ]
      }
    },
    {
      "type": "Feature",
      "properties": {
        "id": 2820087184,
        "name": "Ji\u0159\u00ed Kr\u00e1sa",
        "weight": 1.0,
        "names": [
          "Ji\u0159\u00ed Kr\u00e1sa",
          "Irma Kr\u00e1sov\u00e1",
          "Ota Kr\u00e1sa"
        ]
      },
      "geometry": {
        "type": "Point",
        "coordinates": [
          14.4307997,
          50.0890619
        ]
      }
    },
    {
      "type": "Feature",
      "properties": {
        "id": 2820087188,
        "name": "Julie Fischerov\u00e1",
        "weight": 1.0,
        "names": [
          "Julie Fischerov\u00e1",
          "Herbert Fischer",
          "Benjamin Rosenstein"
        ]
      },
      "geometry": {
        "type": "Point",
        "coordinates": [
          14.4237304,
          50.0887348
        ]
      }
    },
    {
      "type": "Feature",
      "properties": {
        "id": 2820087190,
        "name": "Mark\u00e9ta Auerbachov\u00e1",
        "weight": 1.0
      },
      "geometry": {
        "type": "Point",
        "coordinates": [
          14.4275548,
          50.0886104
        ]
      }
    },
    {
      "type": "Feature",
      "properties": {
        "id": 2820087191,
        "name": "Benjamin Rosenstein",
        "weight": 1.0
      },
      "geometry": {
        "type": "Point",
        "coordinates": [
          14.4230635,
          50.0882439
        ]
      }
    },
    {
      "type": "Feature",
      "properties": {
        "id": 2820087193,
        "name": "Helena Winterov\u00e1 roz. Popperov\u00e1",
        "weight": 1.0
      },
      "geometry": {
        "type": "Point",
        "coordinates": [
          14.4263527,
          50.0879495
        ]
      }
    },
    {
      "type": "Feature",
      "properties": {
        "id": 2820087194,
        "name": "Ida Aschenbrennerov\u00e1",
        "weight": 1.0
      },
      "geometry": {
        "type": "Point",
        "coordinates": [
          14.4259379,
          50.0890503
        ]
      }
    },
    {
      "type": "Feature",
      "properties": {
        "id": 2820087195,
        "name": "Karel Mautner",
        "weight": 1.0
      },
      "geometry": {
        "type": "Point",
        "coordinates": [
          14.4271619,
          50.0898976
        ]
      }
    },