{
  "type": "FeatureCollection",
  "features": [
    {
      "type": "Feature",
      "properties": {
        "id": 300519495,
        "name": "Franz Kafka",
        "weight": 1.0
      },
      "geometry": {
        "type": "Point",
        "coordinates": [
          14.4192196,
          50.0878913
        ]
      }
    },
    {
      "type": "Feature",
      "properties": {
        "id": 331954740,
        "name": "Anton\u00edn Dvo\u0159\u00e1k",
        "weight": 1.0
      },
      "geometry": {
        "type": "Point",
        "coordinates": [
          14.4151737,
          50.0892384
        ]
      }
    },
    {
      "type": "Feature",
      "properties": {
        "id": 331954741,
        "name": "Josef M\u00e1nes",
        "weight": 1.0
      },
      "geometry": {
        "type": "Point",
        "coordinates": [
          14.4145015,
          50.0897553
        ]
      }
    },
    {
      "type": "Feature",
      "properties": {
        "id": 331955783,
        "name": "Jan Kot\u011bra",
        "weight": 1.0
      },
      "geometry": {
        "type": "Point",
        "coordinates": [
          14.4147113,
          50.0887259
        ]
      }
    },
    {
      "type": "Feature",
      "properties": {
        "id": 354684523,
        "name": "Moj\u017e\u00ed\u0161",
        "weight": 1.0
      },
      "geometry": {
        "type": "Point",
        "coordinates": [
          14.4185771,
          50.0903097
        ]
      }
    },
    {
      "type": "Feature",
      "properties": {
        "id": 1200250404,
        "name": "Franz Kafka",
        "weight": 1.0
      },
      "geometry": {
        "type": "Point",
        "coordinates": [
          14.4207286,
          50.0901171
        ]
      }
    },
    {
      "type": "Feature",
      "properties": {
        "id": 1239560373,
        "name": "Bed\u0159ich Smetana",
        "weight": 1.0
      },
      "geometry": {
        "type": "Point",
        "coordinates": [
          14.4129324,
          50.0853203
        ]
      }
    },
    {
      "type": "Feature",
      "properties": {
        "id": 1239562332,
        "name": "Karel IV.",
        "weight": 1.0
      },
      "geometry": {
        "type": "Point",
        "coordinates": [
          14.4139028,
          50.0863032
        ]
      }
    },
    {
      "type": "Feature",
      "properties": {
        "id": 1325314645,
        "name": "Jan Palach",
        "weight": 1.0,
        "names": [
          "Jan Palach",
          "Wilhelm Steinitz"
        ]
      },
      "geometry": {
        "type": "Point",
        "coordinates": [
          14.415998,
          50.089179
        ]
      }
    },
    {
      "type": "Feature",
      "properties": {
        "id": 1326652925,
        "name": "svat\u00fd Ivo",
        "weight": 1.0
      },
      "geometry": {
        "type": "Point",
        "coordinates": [
          14.4131625,
          50.086179
        ]
      }
    },
    {
      "type": "Feature",
      "properties": {
        "id": 1326653642,
        "name": "svat\u00e9 Barbora, Mark\u00e9ta a Al\u017eb\u011bta",
        "weight": 1.0
      },
      "geometry": {
        "type": "Point",
        "coordinates": [
          14.4127466,
          50.0862489
        ]
      }
    },
    {
      "type": "Feature",
      "properties": {
        "id": 1326653738,
        "name": "Pieta",
        "weight": 1.0
      },
      "geometry": {
        "type": "Point",
        "coordinates": [
          14.4123372,
          50.0862886
        ]
      }
    },
    {
      "type": "Feature",
      "properties": {
        "id": 1326691541,
        "name": "svat\u00fd Josef",
        "weight": 1.0
      },
      "geometry": {
        "type": "Point",
        "coordinates": [
          14.4119144,
          50.0863697
        ]
      }
    },
    {
      "type": "Feature",
      "properties": {
        "id": 1326714464,
        "name": "Madona se svat\u00fdm Bernardem",
        "weight": 1.0
      },
      "geometry": {
        "type": "Point",
        "coordinates": [
          14.4132146,
          50.0863006
        ]
      }
    },
    {
      "type": "Feature",
      "properties": {
        "id": 1326744552,
        "name": "Madona se svat\u00fdmi Dominikem a Tom\u00e1\u0161em Akvinsk\u00fdm",
        "weight": 1.0
      },
      "geometry": {
        "type": "Point",
        "coordinates": [
          14.4127948,
          50.0863702
        ]
      }
    },
    {
      "type": "Feature",
      "properties": {
        "id": 1326746379,
        "name": "svat\u00fd K\u0159\u00ed\u017e s\u00a0Kalv\u00e1ri\u00ed",
        "weight": 1.0
      },
      "geometry": {
        "type": "Point",
        "coordinates": [
          14.4123911,
          50.0864369
        ]
      }
    },
    {
      "type": "Feature",
      "properties": {
        "id": 1326748501,
        "name": "svat\u00e1 Anna",
        "weight": 1.0
      },
      "geometry": {
        "type": "Point",
        "coordinates": [
          14.4119476,
          50.0864768
        ]
      }
    },
    {
      "type": "Feature",
      "properties": {
        "id": 1326750530,
        "name": "svat\u00ed Cyril a Metod\u011bj",
        "weight": 1.0
      },
      "geometry": {
        "type": "Point",
        "coordinates": [
          14.4115165,
          50.0865268
        ]
      }
    },
    {
      "type": "Feature",
      "properties": {
        "id": 2486363241,
        "name": "Franci\u0161ak Skaryna",
        "weight": 1.0
      },
      "geometry": {
        "type": "Point",
        "coordinates": [
          14.4164606,
          50.0864427
        ]
      }
    },
    {
      "type": "Feature",
      "properties": {
        "id": 2817525718,
        "name": "Albert Heller",
        "weight": 1.0,
        "names": [
          "Albert Heller",
          "Gr\u00e9ta Hellerov\u00e1"
        ]
      },
      "geometry": {
        "type": "Point",
        "coordinates": [
          14.4197438,
          50.0885625
        ]
      }
    },
    {
      "type": "Feature",
      "properties": {
        "id": 2817525720,
        "name": "Dr. Gertrud Loew",
        "weight": 1.0,
        "names": [
          "Dr. Gertrud Loew",
          "Dr. Hans Loew",
          "Ladislav Pale\u010dek",
          "Emil \u010cernohouz"
        ]
      },
      "geometry": {
        "type": "Point",
        "coordinates": [
          14.4188016,
          50.0906237
        ]
      }
    },
    {
      "type": "Feature",
      "properties": {
        "id": 2817525722,
        "name": "Eduard B\u00f6hm",
        "weight": 1.0,
        "names": [
          "Eduard B\u00f6hm",
          "Herm\u00edna B\u00f6hmov\u00e1"
        ]
      },
      "geometry": {
        "type": "Point",
        "coordinates": [
          14.4188504,
          50.08801
        ]
      }
    },
    {
      "type": "Feature",
      "properties": {
        "id": 2817525723,
        "name": "Erich Spalter",
        "weight": 1.0
      },
      "geometry": {
        "type": "Point",
        "coordinates": [
          14.4201189,
          50.0909483
        ]
      }
    },
    {
      "type": "Feature",
      "properties": {
        "id": 2817525732,
        "name": "Lore Winternitzov\u00e1",
        "weight": 1.0,
        "names": [
          "Lore Winternitzov\u00e1",
          "\u0160t\u011bp\u00e1n Michael Winternitz"
        ]
      },
      "geometry": {
        "type": "Point",
        "coordinates": [
          14.419847,
          50.0883896
        ]
      }
    },
    {
      "type": "Feature",
      "properties": {
        "id": 2817525745,
        "name": "Sophie Lieben",
        "weight": 1.0
      },
      "geometry": {
        "type": "Point",
        "coordinates": [
          14.4225197,
          50.0901156
        ]
      }
    },
    {
      "type": "Feature",
      "properties": {
        "id": 2817574576,
        "name": "Ad\u00e9la Freudenfeldov\u00e1",
        "weight": 1.0,
        "names": [
          "Ad\u00e9la Freudenfeldov\u00e1",
          "Mirek \u017d\u00ed\u017eala",
          "Rudolf Freudenfeld",
          "\u0160arlota \u017d\u00ed\u017ealov\u00e1 roz. Freudenfeldov\u00e1"
        ]
      },
      "geometry": {
        "type": "Point",
        "coordinates": [
          14.4198423,
          50.0904269
        ]
      }
    },
    {
      "type": "Feature",
      "properties": {
        "id": 2817574577,
        "name": "Arno\u0161t Grosslicht",
        "weight": 1.0,
        "names": [
          "Arno\u0161t Grosslicht",
          "Elsa Grosslichtov\u00e1",
          "Franti\u0161ek Grosslicht"
        ]
      },
      "geometry": {
        "type": "Point",
        "coordinates": [
          14.4199785,
          50.0895303
        ]
      }
    },
    {
      "type": "Feature",
      "properties": {
        "id": 2817574579,
        "name": "Eva Abelesov\u00e1",
        "weight": 1.0,
        "names": [
          "Eva Abelesov\u00e1",
          "He\u0159man Abeles",
          "Zdenka Abelesov\u00e1"
        ]
      },
      "geometry": {
        "type": "Point",
        "coordinates": [
          14.4199396,
          50.088874
        ]
      }
    },
    {
      "type": "Feature",
      "properties": {
        "id": 2817574582,
        "name": "Max Eckstein",
        "weight": 1.0
      },
      "geometry": {
        "type": "Point",
        "coordinates": [
          14.4191284,
          50.0885477
        ]
      }
    },
    {
      "type": "Feature",
      "properties": {
        "id": 2817574583,
        "name": "Maximilian Lasch",
        "weight": 1.0,
        "names": [
          "Maximilian Lasch",
          "Rudolf Lasch"
        ]
      },
      "geometry": {
        "type": "Point",
        "coordinates": [
          14.4205793,
          50.0907605
        ]
      }
    },
    {
      "type": "Feature",
      "properties": {
        "id": 2817959421,
        "name": "Alena Pfefferov\u00e1",
        "weight": 1.0,
        "names": [
          "Alena Pfefferov\u00e1",
          "Berta Krumpelesov\u00e1",
          "Erv\u00edn Pfeffer",
          "Ji\u0159ina Pfefferov\u00e1",
          "Marta Pfefferov\u00e1"
        ]
      },
      "geometry": {
        "type": "Point",
        "coordinates": [
          14.4178217,
          50.0907255
        ]
      }
    },
    {
      "type": "Feature",
      "properties": {
        "id": 2817959423,
        "name": "Erv\u00edn Fr\u00f6hlich",
        "weight": 1.0,
        "names": [
          "Erv\u00edn Fr\u00f6hlich",
          "Pavla Fr\u00f6hlichov\u00e1"
        ]
      },
      "geometry": {
        "type": "Point",
        "coordinates": [
          14.418608,
          50.0909322
        ]
      }
    },
    {
      "type": "Feature",
      "properties": {
        "id": 2817959425,
        "name": "Eva Mia Pollakov\u00e1",
        "weight": 1.0,
        "names": [
          "Eva Mia Pollakov\u00e1",
          "Vilma Pollakov\u00e1 roz. Roub\u00ed\u010dkov\u00e1",
          "Karel Markus",
          "Berta Markusov\u00e1",
          "Helena Fahnov\u00e1",
          "Karel Fahn"
        ]
      },
      "geometry": {
        "type": "Point",
        "coordinates": [
          14.4175416,
          50.0912049
        ]
      }
    },
    {
      "type": "Feature",
      "properties": {
        "id": 2817959427,
        "name": "MUDr. Otto Heller",
        "weight": 1.0
      },
      "geometry": {
        "type": "Point",
        "coordinates": [
          14.4186753,
          50.0908163
        ]
      }
    },
    {
      "type": "Feature",
      "properties": {
        "id": 2817959429,
        "name": "Ota Klein",
        "weight": 1.0
      },
      "geometry": {
        "type": "Point",
        "coordinates": [
          14.4195237,
          50.0906104
        ]
      }
    },
    {
      "type": "Feature",
      "properties": {
        "id": 2818040198,
        "name": "Beila Bergmannov\u00e1",
        "weight": 1.0,
        "names": [
          "Beila Bergmannov\u00e1",
          "R\u016f\u017eena Bergmannov\u00e1",
          "Alois Bergmann",
          "Blanka Jan\u00e1\u0161ov\u00e1, roz.Mahlerov\u00e1"
        ]
      },
      "geometry": {
        "type": "Point",
        "coordinates": [
          14.4186237,
          50.0883796
        ]
      }
    },
    {
      "type": "Feature",
      "properties": {
        "id": 2818040200,
        "name": "Helena Fuchsov\u00e1",
        "weight": 1.0,
        "names": [
          "Helena Fuchsov\u00e1",
          "Em\u00edlie Fuchsov\u00e1"
        ]
      },
      "geometry": {
        "type": "Point",
        "coordinates": [
          14.4178115,
          50.0882716
        ]
      }
    },
    {
      "type": "Feature",
      "properties": {
        "id": 2818489636,
        "name": "Artur Bass",
        "weight": 1.0,
        "names": [
          "Artur Bass",
          "Hanu\u0161 Adler",
          "Paula Bass",
          "Viktor Popper"
        ]
      },
      "geometry": {
        "type": "Point",
        "coordinates": [
          14.4239383,
          50.0858666
        ]
      }
    },
    {
      "type": "Feature",
      "properties": {
        "id": 2818489646,
        "name": "Ludv\u00edk Hasterl\u00edk",
        "weight": 1.0,
        "names": [
          "Ludv\u00edk Hasterl\u00edk",
          "Matylda Hasterl\u00edkov\u00e1",
          "R\u016f\u017eena Hasterl\u00edkov\u00e1",
          "Vil\u00e9m Hasterl\u00edk"
        ]
      },
      "geometry": {
        "type": "Point",
        "coordinates": [
          14.4198641,
          50.0857591
        ]
      }
    },
    {
      "type": "Feature",
      "properties": {
        "id": 2820087188,
        "name": "Julie Fischerov\u00e1",
        "weight": 1.0,
        "names": [
          "Julie Fischerov\u00e1",
          "Herbert Fischer",
          "Benjamin Rosenstein"
        ]
      },
      "geometry": {
        "type": "Point",
        "coordinates": [
          14.4237304,
          50.0887348
        ]
      }
    },
    {
      "type": "Feature",
      "properties": {
        "id": 2820087191,
        "name": "Benjamin Rosenstein",
        "weight": 1.0
      },
      "geometry": {
        "type": "Point",
        "coordinates": [
          14.4230635,
          50.0882439
        ]
      }
    },
    {
      "type": "Feature",
      "properties": {
        "id": 2820087200,
        "name": "Robert Kohn",
        "weight": 1.0,
        "names": [
          "Robert Kohn",
          "Irma Kohnov\u00e1"
        ]
      },
      "geometry": {
        "type": "Point",
        "coordinates": [
          14.4239242,
          50.0909684
        ]
      }
    },
    {
      "type": "Feature",
      "properties": {
        "id": 2820088102,
        "name": "Bed\u0159ich Schulz",
        "weight": 1.0
      },
      "geometry": {
        "type": "Point",
        "coordinates": [
          14.4239236,
          50.0920329
        ]
      }
    },
    {
      "type": "Feature",
      "properties": {
        "id": 3226506714,
        "name": "svat\u00fd V\u00e1clav",
        "weight": 1.0
      },
      "geometry": {
        "type": "Point",
        "coordinates": [
          14.4143906,
          50.0863116
        ]
      }
    },
    {
      "type": "Feature",
      "properties": {
        "id": 3313928093,
        "name": "Karel Jarom\u00edr Erben",
        "weight": 1.0,
        "names": [
          "Karel Jarom\u00edr Erben",
          "svat\u00fd Hubert s jelenem"
        ]
      },
      "geometry": {
        "type": "Point",
        "coordinates": [
          14.4198962,
          50.0850091
        ]
      }
    },
    {
      "type": "Feature",
      "properties": {
        "id": 3414032167,
        "weight": 1.0
      },
      "geometry": {
        "type": "Point",
        "coordinates": [
          14.4194212,
          50.0896893
        ]
      }
    },
    {
      "type": "Feature",
      "properties": {
        "id": 3724950989,
        "name": "Josef V\u00e1clav Myslbek",
        "weight": 1.0
      },
      "geometry": {
        "type": "Point",
        "coordinates": [
          14.4139612,
          50.0849873
        ]
      }
    },
    {
      "type": "Feature",
      "properties": {
        "id": 3828163305,
        "name": "V\u00e1clav Budovec z Budova",
        "weight": 1.0
      },
      "geometry": {
        "type": "Point",
        "coordinates": [
          14.4228514,
          50.0880157
        ]
      }
    },
    {
      "type": "Feature",
      "properties": {
        "id": 3909170515,
        "weight": 1.0
      },
      "geometry": {
        "type": "Point",
        "coordinates": [
          14.4166403,
          50.0866686
        ]
      }
    },
    {
      "type": "Feature",
      "properties": {
        "id": 3916044454,
        "name": "Egon Ervin Kisch",
        "weight": 1.0
      },
      "geometry": {
        "type": "Point",
        "coordinates": [
          14.4207483,
          50.0860693
        ]
      }
    },
    {
      "type": "Feature",
      "properties": {
        "id": 3916044456,
        "name": "Johannes Kepler",
        "weight": 1.0
      },
      "geometry": {
        "type": "Point",
        "coordinates": [
          14.4148016,
          50.0859692
        ]
      }
    },
    {
      "type": "Feature",
      "properties": {
        "id": 3918406289,
        "name": "Pra\u017esk\u00fd student",
        "weight": 1.0
      },
      "geometry": {
        "type": "Point",
        "coordinates": [
          14.4150611,
          50.0864189
        ]
      }
    },
    {
      "type": "Feature",
      "properties": {
        "id": 3932093214,
        "name": "svat\u00fd Jan Nepomuck\u00fd",
        "weight": 1.0
      },
      "geometry": {
        "type": "Point",
        "coordinates": [
          14.4203845,
          50.0899804
        ]
      }
    },
    {
      "type": "Feature",
      "properties": {
        "id": 4075275785,
        "name": "Ernst Mach",
        "weight": 1.0
      },
      "geometry": {
        "type": "Point",
        "coordinates": [
          14.4243243,
          50.0865141
        ]
      }
    },
    {
      "type": "Feature",
      "properties": {
        "id": 4076385988,
        "name": "Albert Einstein",
        "weight": 1.0
      },
      "geometry": {
        "type": "Point",
        "coordinates": [
          14.421826,
          50.0871798
        ]
      }
    },
    {
      "type": "Feature",
      "properties": {
        "id": 4234475484,
        "name": "Mikol\u00e1\u0161 Ale\u0161",
        "weight": 1.0
      },
      "geometry": {
        "type": "Point",
        "coordinates": [
          14.4140378,
          50.0880712
        ]
      }
    },
    {
      "type": "Feature",
      "properties": {
        "id": 4267961025,
        "name": "Josef M\u00e1nes",
        "weight": 1.0
      },
      "geometry": {
        "type": "Point",
        "coordinates": [
          14.4230172,
          50.0911587
        ]
      }
    },
    {
      "type": "Feature",
      "properties": {
        "id": 4470455972,
        "name": "Pavel Tigrid",
        "weight": 1.0
      },
      "geometry": {
        "type": "Point",
        "coordinates": [
          14.4180481,
          50.0899365
        ]
      }
    },
    {
      "type": "Feature",
      "properties": {
        "id": 4733812077,
        "name": "Matija Murko",
        "weight": 1.0
      },
      "geometry": {
        "type": "Point",
        "coordinates": [
          14.4167171,
          50.0873324
        ]
      }
    },
    {
      "type": "Feature",
      "properties": {
        "id": 4945953597,
        "name": "Informa\u010dn\u00ed deska Pal\u00e1ce zemsk\u00fdch desek",
        "weight": 1.0
      },
      "geometry": {
        "type": "Point",
        "coordinates": [
          14.4181784,
          50.085059
        ]
      }
    },
    {
      "type": "Feature",
      "properties": {
        "id": 6052703225,
        "name": "Bohuslav Balb\u00edn",
        "weight": 1.0
      },
      "geometry": {
        "type": "Point",
        "coordinates": [
          14.4154982,
          50.0863408
        ]
      }
    },
    {
      "type": "Feature",
      "properties": {
        "id": 6149695438,
        "name": "Friedrich Reinitzer",
        "weight": 1.0
      },
      "geometry": {
        "type": "Point",
        "coordinates": [
          14.4182008,
          50.0847245
        ]
      }
    },
    {
      "type": "Feature",
      "properties": {
        "id": 6668030488,
        "name": "FRANTI\u0160EK R\u00d6SCHEL",
        "weight": 1.0
      },
      "geometry": {
        "type": "Point",
        "coordinates": [
          14.4170715,
          50.088258
        ]
      }
    },
    {
      "type": "Feature",
      "properties": {
        "id": 8255565801,
        "name": "Panna Maria",
        "weight": 1.0,
        "names": [
          "Panna Maria",
          "Mari\u00e1nsk\u00fd sloup"
        ]
      },
      "geometry": {
        "type": "Point",
        "coordinates": [
          14.4213252,
          50.0873657
        ]
      }
    },
    {
      "type": "Feature",
      "properties": {
        "id": 8798184462,
        "name": "Jan Hus",
        "weight": 1.0,
        "names": [
          "Jan Hus",
          "Pomn\u00edk mistra Jana Husa"
        ]
      },
      "geometry": {
        "type": "Point",
        "coordinates": [
          14.421125,
          50.0877261
        ]
      }
    },
    {
      "type": "Feature",
      "properties": {
        "id": 9268784109,
        "name": "Jan Marek Marci",
        "weight": 1.0
      },
      "geometry": {
        "type": "Point",
        "coordinates": [
          14.4207285,
          50.0857273
        ]
      }
    },
    {
      "type": "Feature",
      "properties": {
        "id": 9958589567,
        "name": "Rudolf Klein",
        "weight": 1.0,
        "names": [
          "Rudolf Klein",
          "Marta Kleinov\u00e1"
        ]
      },
      "geometry": {
        "type": "Point",
        "coordinates": [
          14.4228959,
          50.089641
        ]
      }
    },
    {
      "type": "Feature",
      "properties": {
        "id": 9959231496,
        "name": "Gustav Wotick\u00fd",
        "weight": 1.0,
        "names": [
          "Gustav Wotick\u00fd",
          "Terezie Wotick\u00e1"
        ]
      },
      "geometry": {
        "type": "Point",
        "coordinates": [
          14.4224187,
          50.0897402
        ]
      }
    },
    {
      "type": "Feature",
      "properties": {
        "id": 9959279884,
        "name": "Emil Roub\u00ed\u010dek",
        "weight": 1.0
      },
      "geometry": {
        "type": "Point",
        "coordinates": [
          14.4184011,
          50.0911397
        ]
      }
    },
    {
      "type": "Feature",
      "properties": {
        "id": 9959279885,
        "name": "Eugene Laufer",
        "weight": 1.0
      },
      "geometry": {
        "type": "Point",
        "coordinates": [
          14.4185253,
          50.0910331
        ]
      }
    },
    {
      "type": "Feature",
      "properties": {
        "id": 9959313594,
        "name": "Boris Berkovi\u010d",
        "weight": 1.0,
        "names": [
          "Boris Berkovi\u010d",
          "Josef Berkovi\u010d"
        ]
      },
      "geometry": {
        "type": "Point",
        "coordinates": [
          14.4246742,
          50.0910176
        ]
      }
    },
    {
      "type": "Feature",
      "properties": {
        "id": 9990569305,
        "name": "Gabriela Bloch",
        "weight": 1.0,
        "names": [
          "Gabriela Bloch",
          "Eva S. Benda",
          "Zuzana Steinerov\u00e1",
          "Hedvika Steinerov\u00e1"
        ]
      },
      "geometry": {
        "type": "Point",
        "coordinates": [
          14.4157184,
          50.0872663
        ]
      }
    },
    {
      "type": "Feature",
      "properties": {
        "id": 9990569309,
        "name": "Markus Flesch",
        "weight": 1.0,
        "names": [
          "Markus Flesch",
          "Ely Leo Flesch",
          "Berta Fischerov\u00e1",
          "Fr\u00fdda Fleschov\u00e1",
          "Josef Flesch"
        ]
      },
      "geometry": {
        "type": "Point",
        "coordinates": [
          14.415633,
          50.0883767
        ]
      }
    },
    {
      "type": "Feature",
      "properties": {
        "id": 9992062318,
        "name": "Klara Mahlerov\u00e1",
        "weight": 1.0,
        "names": [
          "Klara Mahlerov\u00e1",
          "Karel Mahler"
        ]
      },
      "geometry": {
        "type": "Point",
        "coordinates": [
          14.417863,
          50.0889982
        ]
      }
    },
    {
      "type": "Feature",
      "properties": {
        "id": 9992062803,
        "name": "Franti\u0161ek Pick",
        "weight": 1.0,
        "names": [
          "Franti\u0161ek Pick",
          "Al\u017eb\u011bta Pick",
          "Anna Marie Pick"
        ]
      },
      "geometry": {
        "type": "Point",
        "coordinates": [
          14.4204033,
          50.0889918
        ]
      }
    },
    {
      "type": "Feature",
      "properties": {
        "id": 9992083258,
        "name": "Jind\u0159ich Prossnitz",
        "weight": 1.0
      },
      "geometry": {
        "type": "Point",
        "coordinates": [
          14.4229699,
          50.0909226
        ]
      }
    },
    {
      "type": "Feature",
      "properties": {
        "id": 9992083653,
        "name": "Rudolf Weil",
        "weight": 1.0
      },
      "geometry": {
        "type": "Point",
        "coordinates": [
          14.4220085,
          50.0888378
        ]
      }
    },
    {
      "type": "Feature",
      "properties": {
        "id": 10006002997,
        "name": "Emilie Klingenberger",
        "weight": 1.0
      },
      "geometry": {
        "type": "Point",
        "coordinates": [
          14.4224492,
          50.0862475
        ]
      }
    },
    {
      "type": "Feature",
      "properties": {
        "id": 10006007284,
        "name": "Ota Kollinsk\u00fd",
        "weight": 1.0,
        "names": [
          "Ota Kollinsk\u00fd",
          "Stella Kollinsk\u00e1",
          "Olga Dagmar Kollinsk\u00e1"
        ]
      },
      "geometry": {
        "type": "Point",
        "coordinates": [
          14.423497,
          50.0856343
        ]
      }
    },
    {
      "type": "Feature",
      "properties": {
        "id": 10020128188,
        "name": "Marek Frauwirth",
        "weight": 1.0
      },
      "geometry": {
        "type": "Point",
        "coordinates": [
          14.4189363,
          50.0860107
        ]
      }
    },
    {
      "type": "Feature",
      "properties": {
        "id": 10723025553,
        "name": "Marie Mizzi Marburgov\u00e1",
        "weight": 1.0,
        "names": [
          "Marie Mizzi Marburgov\u00e1",
          "Johana Landsbergerov\u00e1"
        ]
      },
      "geometry": {
        "type": "Point",
        "coordinates": [
          14.4191982,
          50.0899567
        ]
      }
    },
    {
      "type": "Feature",
      "properties": {
        "id": 10996470915,
        "name": "Franci\u0161ak Skaryna",
        "weight": 1.0
      },
      "geometry": {
        "type": "Point",
        "coordinates": [
          14.4199885,
          50.0874896
        ]
      }
    },
    {
      "type": "Feature",
      "properties": {
        "id": 11401832671,
        "name": "Artur G\u00f6rgey",
        "weight": 1.0
      },
      "geometry": {
        "type": "Point",
        "coordinates": [
          14.4212032,
          50.0860718
        ]
      }
    },
    {
      "type": "Feature",
      "properties": {
        "id": 11478903475,
        "name": "Pavel Josef \u0160afa\u0159\u00edk",
        "weight": 1.0
      },
      "geometry": {
        "type": "Point",
        "coordinates": [
          14.4166671,
          50.0861373
        ]
      }
    },
    {
      "type": "Feature",
      "properties": {
        "id": 11527558158,
        "name": "R\u016f\u017eena Vackov\u00e1",
        "weight": 1.0
      },
      "geometry": {
        "type": "Point",
        "coordinates": [
          14.4158141,
          50.0887393
        ]
      }
    },
    {
      "type": "Feature",
      "properties": {
        "id": 11677852125,
        "name": "Christian Doppler",
        "weight": 1.0
      },
      "geometry": {
        "type": "Point",
        "coordinates": [
          14.4231263,
          50.0912959
        ]
      }
    },
    {
      "type": "Feature",
      "properties": {
        "id": 12003675621,
        "name": "St\u0159elba na Filozofick\u00e9 fakult\u011b UK",
        "weight": 1.0
      },
      "geometry": {
        "type": "Point",
        "coordinates": [
          14.415458,
          50.0890188
        ]
      }
    },
    {
      "type": "Feature",
      "properties": {
        "id": 12362053259,
        "name": "Alois Allina",
        "weight": 1.0,
        "names": [
          "Alois Allina",
          "Gertruda Allinov\u00e1",
          "Pavel Herrmann"
        ]
      },
      "geometry": {
        "type": "Point",
        "coordinates": [
          14.4199253,
          50.089974
        ]
      }
    },
    {
      "type": "Feature",
      "properties": {
        "id": 12362094983,
        "name": "Jind\u0159ich Kohn",
        "weight": 1.0,
        "names": [
          "Jind\u0159ich Kohn",
          "Adelheida Kohnov\u00e1"
        ]
      },
      "geometry": {
        "type": "Point",
        "coordinates": [
          14.4190837,
          50.0880467
        ]
      }
    },
    {
      "type": "Feature",
      "properties": {
        "id": 12362255942,
        "name": "Lilly Weiss roz. Modr\u00fd",
        "weight": 1.0,
        "names": [
          "Lilly Weiss roz. Modr\u00fd",
          "Susanne Weiss",
          "Hermine Modr\u00fd Grimm roz. Reichmann",
          "Olga Kauders roz. Reichmann",
          "Friedrich Paul Weiss"
        ]
      },
      "geometry": {
        "type": "Point",
        "coordinates": [
          14.4193142,
          50.0892533
        ]
      }
    },
    {
      "type": "Feature",
      "properties": {
        "id": 12382048317,
        "name": "Josef Pollak",
        "weight": 1.0
      },
      "geometry": {
        "type": "Point",
        "coordinates": [
          14.4237011,
          50.0886417
        ]
      }
    },
    {
      "type": "Feature",
      "properties": {
        "id": 12600302266,
        "name": "prof. Marian Szyjkowski",
        "weight": 1.0
      },
      "geometry": {
        "type": "Point",
        "coordinates": [
          14.4164461,
          50.0909718
        ]
      }
    },
    {
      "type": "Feature",
      "properties": {
        "id": 12655671388,
        "name": "Nezn\u00e1m\u00fd bojovn\u00edk",
        "weight": 1.0
      },
      "geometry": {
        "type": "Point",
        "coordinates": [
          14.4176438,
          50.0916314
        ]
      }
    },
    {
      "type": "Feature",
      "properties": {
        "id": 12741046718,
        "name": "Popraven\u00fdm student\u016fm Pr\u00e1vnick\u00e9 fakulty",
        "weight": 1.0
      },
      "geometry": {
        "type": "Point",
        "coordinates": [
          14.4175959,
          50.0915283
        ]
      }
    },
    {
      "type": "Feature",
      "properties": {
        "id": 12753987062,
        "name": "Pam\u00e1tce bojovn\u00edk\u016fm popraven\u00fdm a svr\u017een\u00fdm do Vltavy",
        "weight": 1.0
      },
      "geometry": {
        "type": "Point",
        "coordinates": [
          14.4172145,
          50.0918393
        ]
      }
    },
    {
      "type": "Feature",
      "properties": {
        "id": 12995626928,
        "weight": 1.0
      },
      "geometry": {
        "type": "Point",
        "coordinates": [
          14.4182577,
          50.0900217
        ]
      }
    },
    {
      "type": "Feature",
      "properties": {
        "id": 12995626929,
        "name": "Staronov\u00e1 Synagoga",
        "weight": 1.0
      },
      "geometry": {
        "type": "Point",
        "coordinates": [
          14.4184403,
          50.0899829
        ]
      }
    },
    {
      "type": "Feature",
      "properties": {
        "id": 12995626930,
        "name": "Old\u0159ich Nov\u00fd",
        "weight": 1.0
      },
      "geometry": {
        "type": "Point",
        "coordinates": [
          14.4181962,
          50.0903537
        ]
      }
    },
    {
      "type": "Feature",
      "properties": {
        "id": 13058070073,
        "weight": 1.0
      },
      "geometry": {
        "type": "Point",
        "coordinates": [
          14.4136277,
          50.0862192
        ]
      }
    },
    {
      "type": "Feature",
      "properties": {
        "id": 13058070075,
        "weight": 1.0
      },
      "geometry": {
        "type": "Point",
        "coordinates": [
          14.4136296,
          50.086398
        ]
      }
    },
    {
      "type": "Feature",
      "properties": {
        "id": 13322092736,
        "name": "Vil\u00e9m Kraus",
        "weight": 1.0
      },
      "geometry": {
        "type": "Point",
        "coordinates": [
          14.4192671,
          50.0898465
        ]
      }
    },
    {
      "type": "Feature",
      "properties": {
        "id": 13470628219,
        "weight": 1.0
      },
      "geometry": {
        "type": "Point",
        "coordinates": [
          14.42455,
          50.091237
        ]
      }
    },
    {
      "type": "Feature",
      "properties": {
        "id": 13470921462,
        "weight": 1.0
      },
      "geometry": {
        "type": "Point",
        "coordinates": [
          14.423444,
          50.086348
        ]
      }
    },
    {
      "type": "Feature",
      "properties": {
        "id": 13470989629,
        "weight": 1.0
      },
      "geometry": {
        "type": "Point",
        "coordinates": [
          14.419097,
          50.089466
        ]
      }
    },
    {
      "type": "Feature",
      "properties": {
        "id": 13470989647,
        "weight": 1.0
      },
      "geometry": {
        "type": "Point",
        "coordinates": [
          14.4191722,
          50.0855481
        ]
      }
    },
    {
      "type": "Feature",
      "properties": {
        "id": 13470989680,
        "weight": 1.0
      },
      "geometry": {
        "type": "Point",
        "coordinates": [
          14.420151,
          50.090016
        ]
      }
    },
    {
      "type": "Feature",
      "properties": {
        "id": 13470993070,
        "weight": 1.0
      },
      "geometry": {
        "type": "Point",
        "coordinates": [
          14.419574,
          50.088838
        ]
      }
    },
    {
      "type": "Feature",
      "properties": {
        "id": 13471010726,
        "weight": 1.0
      },
      "geometry": {
        "type": "Point",
        "coordinates": [
          14.423086,
          50.089541
        ]
      }
    },
    {
      "type": "Feature",
      "properties": {
        "id": 13471010727,
        "weight": 1.0
      },
      "geometry": {
        "type": "Point",
        "coordinates": [
          14.421218,
          50.088272
        ]
      }
    },
    {
      "type": "Feature",
      "properties": {
        "id": 13471010787,
        "weight": 1.0
      },
      "geometry": {
        "type": "Point",
        "coordinates": [
          14.419977,
          50.090288
        ]
      }
    },
    {
      "type": "Feature",
      "properties": {
        "id": 13471011235,
        "weight": 1.0
      },
      "geometry": {
        "type": "Point",
        "coordinates": [
          14.418905,
          50.086135
        ]
      }
    },
    {
      "type": "Feature",
      "properties": {
        "id": 13471011385,
        "weight": 1.0
      },
      "geometry": {
        "type": "Point",
        "coordinates": [
          14.41833,
          50.085617
        ]
      }
    },
    {
      "type": "Feature",
      "properties": {
        "id": 13471011402,
        "weight": 1.0
      },
      "geometry": {
        "type": "Point",
        "coordinates": [
          14.418126,
          50.089057
        ]
      }
    },
    {
      "type": "Feature",
      "properties": {
        "id": 13471011452,
        "weight": 1.0
      },
      "geometry": {
        "type": "Point",
        "coordinates": [
          14.417719,
          50.08769
        ]
      }
    },
    {
      "type": "Feature",
      "properties": {
        "id": 13471011517,
        "weight": 1.0
      },
      "geometry": {
        "type": "Point",
        "coordinates": [
          14.418941,
          50.086345
        ]
      }
    },
    {
      "type": "Feature",
      "properties": {
        "id": 13471011518,
        "weight": 1.0
      },
      "geometry": {
        "type": "Point",
        "coordinates": [
          14.420087,
          50.092001
        ]
      }
    },
    {
      "type": "Feature",
      "properties": {
        "id": 13471011535,
        "weight": 1.0
      },
      "geometry": {
        "type": "Point",
        "coordinates": [
          14.414455,
          50.085057
        ]
      }
    },
    {
      "type": "Feature",
      "properties": {
        "id": 13471011662,
        "weight": 1.0
      },
      "geometry": {
        "type": "Point",
        "coordinates": [
          14.41411,
          50.085791
        ]
      }
    },
    {
      "type": "Feature",
      "properties": {
        "id": 13471011664,
        "weight": 1.0
      },
      "geometry": {
        "type": "Point",
        "coordinates": [
          14.421655,
          50.087879
        ]
      }
    },
    {
      "type": "Feature",
      "properties": {
        "id": 13471012468,
        "weight": 1.0
      },
      "geometry": {
        "type": "Point",
        "coordinates": [
          14.4190799,
          50.0858725
        ]
      }
    },
    {
      "type": "Feature",
      "properties": {
        "id": 13471012471,
        "weight": 1.0
      },
      "geometry": {
        "type": "Point",
        "coordinates": [
          14.423283,
          50.087141
        ]
      }
    },
    {
      "type": "Feature",
      "properties": {
        "id": 13471012750,
        "weight": 1.0
      },
      "geometry": {
        "type": "Point",
        "coordinates": [
          14.420939,
          50.091934
        ]
      }
    },
    {
      "type": "Feature",
      "properties": {
        "id": 13471012766,
        "weight": 1.0
      },
      "geometry": {
        "type": "Point",
        "coordinates": [
          14.422757,
          50.088201
        ]
      }
    },
    {
      "type": "Feature",
      "properties": {
        "id": 13471012888,
        "weight": 1.0
      },
      "geometry": {
        "type": "Point",
        "coordinates": [
          14.424907,
          50.084946
        ]
      }
    },
    {
      "type": "Feature",
      "properties": {
        "id": 13471012897,
        "weight": 1.0
      },
      "geometry": {
        "type": "Point",
        "coordinates": [
          14.42173,
          50.084936
        ]
      }
    },
    {
      "type": "Feature",
      "properties": {
        "id": 13471012898,
        "weight": 1.0
      },
      "geometry": {
        "type": "Point",
        "coordinates": [
          14.414631,
          50.085088
        ]
      }
    },
    {
      "type": "Feature",
      "properties": {
        "id": 13471012899,
        "weight": 1.0
      },
      "geometry": {
        "type": "Point",
        "coordinates": [
          14.417976,
          50.087472
        ]
      }
    },
    {
      "type": "Feature",
      "properties": {
        "id": 13471012920,
        "weight": 1.0
      },
      "geometry": {
        "type": "Point",
        "coordinates": [
          14.418056,
          50.086982
        ]
      }
    },
    {
      "type": "Feature",
      "properties": {
        "id": 13471013033,
        "weight": 1.0
      },
      "geometry": {
        "type": "Point",
        "coordinates": [
          14.422534,
          50.087236
        ]
      }
    },
    {
      "type": "Feature",
      "properties": {
        "id": 13471013036,
        "weight": 1.0
      },
      "geometry": {
        "type": "Point",
        "coordinates": [
          14.422751,
          50.08723
        ]
      }
    },
    {
      "type": "Feature",
      "properties": {
        "id": 13471013051,
        "weight": 1.0
      },
      "geometry": {
        "type": "Point",
        "coordinates": [
          14.414678,
          50.084951
        ]
      }
    },
    {
      "type": "Feature",
      "properties": {
        "id": 13471013304,
        "weight": 1.0
      },
      "geometry": {
        "type": "Point",
        "coordinates": [
          14.418473,
          50.089453
        ]
      }
    },
    {
      "type": "Feature",
      "properties": {
        "id": 13471013439,
        "weight": 1.0
      },
      "geometry": {
        "type": "Point",
        "coordinates": [
          14.416949,
          50.088771
        ]
      }
    },
    {
      "type": "Feature",
      "properties": {
        "id": 13471013448,
        "weight": 1.0
      },
      "geometry": {
        "type": "Point",
        "coordinates": [
          14.423196,
          50.085833
        ]
      }
    },
    {
      "type": "Feature",
      "properties": {
        "id": 13471013457,
        "weight": 1.0
      },
      "geometry": {
        "type": "Point",
        "coordinates": [
          14.419275,
          50.087058
        ]
      }
    },
    {
      "type": "Feature",
      "properties": {
        "id": 13471013597,
        "weight": 1.0
      },
      "geometry": {
        "type": "Point",
        "coordinates": [
          14.419132,
          50.09012
        ]
      }
    },
    {
      "type": "Feature",
      "properties": {
        "id": 13471013610,
        "weight": 1.0
      },
      "geometry": {
        "type": "Point",
        "coordinates": [
          14.423386,
          50.085711
        ]
      }
    },
    {
      "type": "Feature",
      "properties": {
        "id": 13471013620,
        "weight": 1.0
      },
      "geometry": {
        "type": "Point",
        "coordinates": [
          14.414744,
          50.085428
        ]
      }
    },
    {
      "type": "Feature",
      "properties": {
        "id": 13471013756,
        "weight": 1.0
      },
      "geometry": {
        "type": "Point",
        "coordinates": [
          14.419466,
          50.091071
        ]
      }
    },
    {
      "type": "Feature",
      "properties": {
        "id": 13471013782,
        "weight": 1.0
      },
      "geometry": {
        "type": "Point",
        "coordinates": [
          14.413035,
          50.08543
        ]
      }
    },
    {
      "type": "Feature",
      "properties": {
        "id": 13471013923,
        "weight": 1.0
      },
      "geometry": {
        "type": "Point",
        "coordinates": [
          14.421922,
          50.089592
        ]
      }
    },
    {
      "type": "Feature",
      "properties": {
        "id": 13644318000,
        "weight": 1.0
      },
      "geometry": {
        "type": "Point",
        "coordinates": [
          14.417227,
          50.086669
        ]
      }
    },
    {
      "type": "Feature",
      "properties": {
        "id": 13799090435,
        "name": "Franti\u0161ek Jindra a Bed\u0159ich Neubauer",
        "weight": 1.0
      },
      "geometry": {
        "type": "Point",
        "coordinates": [
          14.4158326,
          50.08899
        ]
      }
    },
    {
      "type": "Feature",
      "properties": {
        "id": 30621924,
        "name": "P\u00f6ttingovsk\u00fd pal\u00e1c",
        "weight": 1.0
      },
      "geometry": {
        "type": "Point",
        "coordinates": [
          14.4150267,
          50.0856899
        ]
      }
    },
    {
      "type": "Feature",
      "properties": {
        "id": 320963003,
        "name": "Rabbi L\u00f6w",
        "weight": 1.0
      },
      "geometry": {
        "type": "Point",
        "coordinates": [
          14.4179137,
          50.0869618
        ]
      }
    },
    {
      "type": "Feature",
      "properties": {
        "id": 475495865,
        "name": "Pam\u00e1tn\u00edk 27 p\u00e1n\u016f popraven\u00fdch po bitv\u011b na B\u00edl\u00e9 Ho\u0159e",
        "weight": 1.0
      },
      "geometry": {
        "type": "Point",
        "coordinates": [
          14.4207731,
          50.08724
        ]
      }
    },
    {
      "type": "Feature",
      "properties": {
        "id": 71484,
        "name": "Pal\u00e1c Pacht\u016f z R\u00e1jova",
        "weight": 1.0
      },
      "geometry": {
        "type": "Point",
        "coordinates": [
          14.4146075,
          50.0846939
        ]
      }
    },
    {
      "type": "Feature",
      "properties": {
        "id": 71503,
        "name": "Colloredo-Mansfeldsk\u00fd pal\u00e1c",
        "weight": 1.0
      },
      "geometry": {
        "type": "Point",
        "coordinates": [
          14.414467,
          50.0857525
        ]
      }
    },
    {
      "type": "Feature",
      "properties": {
        "id": 74524,
        "name": "Trauttmannsdorfsk\u00fd pal\u00e1c",
        "weight": 1.0
      },
      "geometry": {
        "type": "Point",
        "coordinates": [
          14.4173842,
          50.0865079
        ]
      }
    },
    {
      "type": "Feature",
      "properties": {
        "id": 127987,
        "name": "pal\u00e1c Kinsk\u00fdch",
        "weight": 1.0
      },
      "geometry": {
        "type": "Point",
        "coordinates": [
          14.4220208,
          50.0880894
        ]
      }
    },
    {
      "type": "Feature",
      "properties": {
        "id": 2318358,
        "name": "Clam-Gallas\u016fv pal\u00e1c",
        "weight": 1.0
      },
      "geometry": {
        "type": "Point",
        "coordinates": [
          14.4181209,
          50.0865206
        ]
      }
    },
    {
      "type": "Feature",
      "properties": {
        "id": 2851001,
        "name": "Menhartovsk\u00fd pal\u00e1c",
        "weight": 1.0
      },
      "geometry": {
        "type": "Point",
        "coordinates": [
          14.4247585,
          50.0874201
        ]
      }
    },
    {
      "type": "Feature",
      "properties": {
        "id": 4460726,
        "name": "pal\u00e1c Hrz\u00e1n\u016f z\u00a0Harasova",
        "weight": 1.0
      },
      "geometry": {
        "type": "Point",
        "coordinates": [
          14.4232001,
          50.0868781
        ]
      }
    },
    {
      "type": "Feature",
      "properties": {
        "id": 5012257,
        "name": "pal\u00e1c Hrob\u010dick\u00fdch",
        "weight": 1.0
      },
      "geometry": {
        "type": "Point",
        "coordinates": [
          14.4233717,
          50.0851821
        ]
      }
    },
    {
      "type": "Feature",
      "properties": {
        "id": 5012259,
        "name": "Wimmer\u016fv pal\u00e1c",
        "weight": 1.0
      },
      "geometry": {
        "type": "Point",
        "coordinates": [
          14.4231549,
          50.0850319
        ]
      }
    },
    {
      "type": "Feature",
      "properties": {
        "id": 7098181,
        "name": "Millesimovsk\u00fd pal\u00e1c",
        "weight": 1.0
      },
      "geometry": {
        "type": "Point",
        "coordinates": [
          14.4239904,
          50.087413
        ]
      }
    },
    {
      "type": "Feature",
      "properties": {
        "id": 10437481,
        "name": "U Kamenn\u00e9ho zvonu",
        "weight": 1.0
      },
      "geometry": {
        "type": "Point",
        "coordinates": [
          14.4221119,
          50.0878669
        ]
      }
    }
  ]
}